INFO:root:01/09/2014 18:05:55 Started script
INFO:root:01/09/2014 18:06:17 Started script
INFO:cherrypy.error:[01/Sep/2014:18:06:17] ENGINE Bus STARTING
INFO:cherrypy.error:[01/Sep/2014:18:06:17] ENGINE Started monitor thread 'Autoreloader'.
INFO:cherrypy.error:[01/Sep/2014:18:06:17] ENGINE Started monitor thread '_TimeoutMonitor'.
INFO:cherrypy.error:[01/Sep/2014:18:06:18] ENGINE Serving on http://0.0.0.0
INFO:cherrypy.error:[01/Sep/2014:18:06:18] ENGINE Bus STARTED
INFO:cherrypy.access.3056765200:192.168.1.100 - - [01/Sep/2014:18:06:19] "GET / HTTP/1.1" 200 540 "" "Mozilla/5.0 (Linux; Android 4.4.2; Nexus 10 Build/KOT49H) AppleWebKit/537.36 (KHTML, like Gecko) Chrome/36.0.1985.135 Safari/537.36"
DEBUG:root:01/09/2014 18:06:19 app.py | ValueError | GrabGPS() | {"lat":51.474449568,"lon":-0.034253991,"time":1995-01-16T17:06:19.000Z,"alt":102.064,"speed":0.0}
DEBUG:root:01/09/2014 18:06:20 Checking network connection: Bus 001 Device 005: ID 067b:2303 Prolific Technology, Inc. PL2303 Serial Port
Bus 001 Device 004: ID 046d:c52b Logitech, Inc. Unifying Receiver
Bus 001 Device 007: ID 12d1:14db Huawei Technologies Co., Ltd. E353/E3131
Bus 001 Device 003: ID 0424:ec00 Standard Microsystems Corp. SMSC9512/9514 Fast Ethernet Adapter
Bus 001 Device 002: ID 0424:9514 Standard Microsystems Corp. SMC9514 Hub
Bus 001 Device 001: ID 1d6b:0002 Linux Foundation 2.0 root hub

DEBUG:root:01/09/2014 18:06:20 Network OK
INFO:cherrypy.access.3056765200:192.168.1.100 - - [01/Sep/2014:18:06:25] "GET / HTTP/1.1" 200 540 "http://192.168.1.99/" "Mozilla/5.0 (Linux; Android 4.4.2; Nexus 10 Build/KOT49H) AppleWebKit/537.36 (KHTML, like Gecko) Chrome/36.0.1985.135 Safari/537.36"
DEBUG:root:01/09/2014 18:06:28 app.py | ValueError | GrabGPS() | NO GPS FOUND: {"class":"SKY","tag":"MID4","device":"/dev/ttyUSB0","time":"1995-01-16T17:06:27.000Z","xdop":0.90,"ydop":1.20,"vdop":4.17,"tdop":1.73,"hdop":5.40,"gdop":4.75,"pdop":4.43,"satellites":[{"PRN":32,"el":66,"az":187,"ss":13,"used":true},{"PRN":19,"el":42,"az":151,"ss":30,"used":true},{"PRN":20,"el":26,"az":223,"ss":16,"used":false},{"PRN":27,"el":12,"az":147,"ss":34,"used":true},{"PRN":14,"el":32,"az":69,"ss":25,"used":true}]}
INFO:cherrypy.access.3056765200:192.168.1.100 - - [01/Sep/2014:18:06:30] "GET / HTTP/1.1" 200 540 "http://192.168.1.99/" "Mozilla/5.0 (Linux; Android 4.4.2; Nexus 10 Build/KOT49H) AppleWebKit/537.36 (KHTML, like Gecko) Chrome/36.0.1985.135 Safari/537.36"
INFO:cherrypy.access.3056765200:192.168.1.100 - - [01/Sep/2014:18:06:35] "GET / HTTP/1.1" 200 540 "http://192.168.1.99/" "Mozilla/5.0 (Linux; Android 4.4.2; Nexus 10 Build/KOT49H) AppleWebKit/537.36 (KHTML, like Gecko) Chrome/36.0.1985.135 Safari/537.36"
DEBUG:root:01/09/2014 18:06:35 app.py | ValueError | GrabGPS() | {"lat":51.474478942,"lon":-0.034426709,"time":1995-01-16T17:06:35.000Z,"alt":104.574,"speed":0.0}
INFO:root:01/09/2014 18:09:55 Started script
INFO:cherrypy.error:[01/Sep/2014:18:09:55] ENGINE Bus STARTING
INFO:cherrypy.error:[01/Sep/2014:18:09:56] ENGINE Started monitor thread 'Autoreloader'.
INFO:cherrypy.error:[01/Sep/2014:18:09:56] ENGINE Started monitor thread '_TimeoutMonitor'.
INFO:cherrypy.error:[01/Sep/2014:18:09:56] ENGINE Serving on http://0.0.0.0
INFO:cherrypy.error:[01/Sep/2014:18:09:56] ENGINE Bus STARTED
DEBUG:root:01/09/2014 18:09:58 app.py | ValueError | GrabGPS() | NO GPS FOUND: {"class":"SKY","tag":"MID4","device":"/dev/ttyUSB0","time":"1995-01-16T17:09:57.000Z","xdop":0.90,"ydop":1.20,"vdop":4.17,"tdop":1.73,"hdop":2.00,"gdop":4.75,"pdop":4.43,"satellites":[{"PRN":19,"el":40,"az":151,"ss":29,"used":true},{"PRN":32,"el":67,"az":186,"ss":22,"used":true},{"PRN":27,"el":11,"az":147,"ss":33,"used":true},{"PRN":20,"el":28,"az":225,"ss":21,"used":false},{"PRN":1,"el":64,"az":285,"ss":15,"used":true}]}
INFO:cherrypy.access.3056867280:192.168.1.100 - - [01/Sep/2014:18:09:58] "GET / HTTP/1.1" 200 540 "" "Mozilla/5.0 (Linux; Android 4.4.2; Nexus 10 Build/KOT49H) AppleWebKit/537.36 (KHTML, like Gecko) Chrome/36.0.1985.135 Safari/537.36"
DEBUG:root:01/09/2014 18:09:58 Checking network connection: Bus 001 Device 005: ID 067b:2303 Prolific Technology, Inc. PL2303 Serial Port
Bus 001 Device 004: ID 046d:c52b Logitech, Inc. Unifying Receiver
Bus 001 Device 007: ID 12d1:14db Huawei Technologies Co., Ltd. E353/E3131
Bus 001 Device 003: ID 0424:ec00 Standard Microsystems Corp. SMSC9512/9514 Fast Ethernet Adapter
Bus 001 Device 002: ID 0424:9514 Standard Microsystems Corp. SMC9514 Hub
Bus 001 Device 001: ID 1d6b:0002 Linux Foundation 2.0 root hub

DEBUG:root:01/09/2014 18:09:58 Network OK
INFO:cherrypy.access.3056867280:192.168.1.100 - - [01/Sep/2014:18:10:04] "GET / HTTP/1.1" 200 540 "http://192.168.1.99/" "Mozilla/5.0 (Linux; Android 4.4.2; Nexus 10 Build/KOT49H) AppleWebKit/537.36 (KHTML, like Gecko) Chrome/36.0.1985.135 Safari/537.36"
DEBUG:root:01/09/2014 18:10:05 app.py | ValueError | GrabGPS() | {"lat":51.474446831,"lon":-0.033807809,"time":1995-01-16T17:10:05.000Z,"alt":104.863,"speed":1.174}
INFO:cherrypy.access.3056867280:192.168.1.100 - - [01/Sep/2014:18:10:09] "GET / HTTP/1.1" 200 540 "http://192.168.1.99/" "Mozilla/5.0 (Linux; Android 4.4.2; Nexus 10 Build/KOT49H) AppleWebKit/537.36 (KHTML, like Gecko) Chrome/36.0.1985.135 Safari/537.36"
DEBUG:root:01/09/2014 18:10:13 app.py | ValueError | GrabGPS() | {"lat":51.474392101,"lon":-0.0339661,"time":1995-01-16T17:10:12.000Z,"alt":102.041,"speed":0.0}
INFO:cherrypy.access.3056867280:192.168.1.100 - - [01/Sep/2014:18:10:14] "GET / HTTP/1.1" 200 540 "http://192.168.1.99/" "Mozilla/5.0 (Linux; Android 4.4.2; Nexus 10 Build/KOT49H) AppleWebKit/537.36 (KHTML, like Gecko) Chrome/36.0.1985.135 Safari/537.36"
INFO:cherrypy.access.3056867280:192.168.1.100 - - [01/Sep/2014:18:10:19] "GET / HTTP/1.1" 200 540 "http://192.168.1.99/" "Mozilla/5.0 (Linux; Android 4.4.2; Nexus 10 Build/KOT49H) AppleWebKit/537.36 (KHTML, like Gecko) Chrome/36.0.1985.135 Safari/537.36"
DEBUG:root:01/09/2014 18:10:22 Checking network connection: Bus 001 Device 005: ID 067b:2303 Prolific Technology, Inc. PL2303 Serial Port
Bus 001 Device 004: ID 046d:c52b Logitech, Inc. Unifying Receiver
Bus 001 Device 007: ID 12d1:14db Huawei Technologies Co., Ltd. E353/E3131
Bus 001 Device 003: ID 0424:ec00 Standard Microsystems Corp. SMSC9512/9514 Fast Ethernet Adapter
Bus 001 Device 002: ID 0424:9514 Standard Microsystems Corp. SMC9514 Hub
Bus 001 Device 001: ID 1d6b:0002 Linux Foundation 2.0 root hub

DEBUG:root:01/09/2014 18:10:22 Network OK
INFO:cherrypy.access.3056867280:192.168.1.100 - - [01/Sep/2014:18:10:25] "GET / HTTP/1.1" 200 540 "http://192.168.1.99/" "Mozilla/5.0 (Linux; Android 4.4.2; Nexus 10 Build/KOT49H) AppleWebKit/537.36 (KHTML, like Gecko) Chrome/36.0.1985.135 Safari/537.36"
INFO:cherrypy.access.3056867280:192.168.1.100 - - [01/Sep/2014:18:10:30] "GET / HTTP/1.1" 200 540 "http://192.168.1.99/" "Mozilla/5.0 (Linux; Android 4.4.2; Nexus 10 Build/KOT49H) AppleWebKit/537.36 (KHTML, like Gecko) Chrome/36.0.1985.135 Safari/537.36"
INFO:cherrypy.access.3056867280:192.168.1.100 - - [01/Sep/2014:18:10:35] "GET / HTTP/1.1" 200 540 "http://192.168.1.99/" "Mozilla/5.0 (Linux; Android 4.4.2; Nexus 10 Build/KOT49H) AppleWebKit/537.36 (KHTML, like Gecko) Chrome/36.0.1985.135 Safari/537.36"
INFO:cherrypy.access.3056867280:192.168.1.100 - - [01/Sep/2014:18:10:40] "GET / HTTP/1.1" 200 540 "http://192.168.1.99/" "Mozilla/5.0 (Linux; Android 4.4.2; Nexus 10 Build/KOT49H) AppleWebKit/537.36 (KHTML, like Gecko) Chrome/36.0.1985.135 Safari/537.36"
DEBUG:root:01/09/2014 18:10:44 Checking network connection: Bus 001 Device 005: ID 067b:2303 Prolific Technology, Inc. PL2303 Serial Port
Bus 001 Device 004: ID 046d:c52b Logitech, Inc. Unifying Receiver
Bus 001 Device 007: ID 12d1:14db Huawei Technologies Co., Ltd. E353/E3131
Bus 001 Device 003: ID 0424:ec00 Standard Microsystems Corp. SMSC9512/9514 Fast Ethernet Adapter
Bus 001 Device 002: ID 0424:9514 Standard Microsystems Corp. SMC9514 Hub
Bus 001 Device 001: ID 1d6b:0002 Linux Foundation 2.0 root hub

DEBUG:root:01/09/2014 18:10:44 Network OK
INFO:cherrypy.access.3056867280:192.168.1.100 - - [01/Sep/2014:18:10:46] "GET / HTTP/1.1" 200 540 "http://192.168.1.99/" "Mozilla/5.0 (Linux; Android 4.4.2; Nexus 10 Build/KOT49H) AppleWebKit/537.36 (KHTML, like Gecko) Chrome/36.0.1985.135 Safari/537.36"
INFO:cherrypy.access.3056867280:192.168.1.100 - - [01/Sep/2014:18:10:51] "GET / HTTP/1.1" 200 540 "http://192.168.1.99/" "Mozilla/5.0 (Linux; Android 4.4.2; Nexus 10 Build/KOT49H) AppleWebKit/537.36 (KHTML, like Gecko) Chrome/36.0.1985.135 Safari/537.36"
INFO:cherrypy.error:[01/Sep/2014:18:10:53] ENGINE Bus STOPPING
INFO:cherrypy.error:[01/Sep/2014:18:10:55] ENGINE HTTP Server cherrypy._cpwsgi_server.CPWSGIServer(('0.0.0.0', 80)) shut down
INFO:cherrypy.error:[01/Sep/2014:18:10:55] ENGINE Stopped thread '_TimeoutMonitor'.
INFO:cherrypy.error:[01/Sep/2014:18:10:55] ENGINE Stopped thread 'Autoreloader'.
INFO:cherrypy.error:[01/Sep/2014:18:10:55] ENGINE Bus STOPPED
INFO:cherrypy.error:[01/Sep/2014:18:10:55] ENGINE Bus EXITING
INFO:cherrypy.error:[01/Sep/2014:18:10:55] ENGINE Bus EXITED
INFO:root:02/09/2014 08:45:44 Started script
INFO:cherrypy.error:[02/Sep/2014:08:45:44] ENGINE Bus STARTING
INFO:cherrypy.error:[02/Sep/2014:08:45:44] ENGINE Started monitor thread 'Autoreloader'.
INFO:cherrypy.error:[02/Sep/2014:08:45:44] ENGINE Started monitor thread '_TimeoutMonitor'.
DEBUG:root:02/09/2014 08:45:45 app.py | ValueError | GrabGPS() | NO GPS FOUND: {"class":"TPV","tag":"MID2","device":"/dev/ttyUSB0","mode":1,"time":"1995-01-17T07:45:44.620Z","ept":0.005}
INFO:cherrypy.error:[02/Sep/2014:08:45:45] ENGINE Serving on http://0.0.0.0
INFO:cherrypy.error:[02/Sep/2014:08:45:45] ENGINE Bus STARTED
DEBUG:root:02/09/2014 08:45:47 Checking network connection: Bus 001 Device 004: ID 046d:c52b Logitech, Inc. Unifying Receiver
Bus 001 Device 006: ID 12d1:14db Huawei Technologies Co., Ltd. E353/E3131
Bus 001 Device 007: ID 067b:2303 Prolific Technology, Inc. PL2303 Serial Port
Bus 001 Device 003: ID 0424:ec00 Standard Microsystems Corp. SMSC9512/9514 Fast Ethernet Adapter
Bus 001 Device 002: ID 0424:9514 Standard Microsystems Corp. SMC9514 Hub
Bus 001 Device 001: ID 1d6b:0002 Linux Foundation 2.0 root hub

DEBUG:root:02/09/2014 08:45:47 Network OK
INFO:cherrypy.access.3056629968:192.168.1.100 - - [02/Sep/2014:08:45:49] "GET / HTTP/1.1" 200 540 "" "Mozilla/5.0 (Linux; Android 4.4.2; Nexus 10 Build/KOT49H) AppleWebKit/537.36 (KHTML, like Gecko) Chrome/36.0.1985.135 Safari/537.36"
DEBUG:root:02/09/2014 08:45:52 app.py | ValueError | GrabGPS() | NO GPS FOUND: {"class":"TPV","tag":"MID2","device":"/dev/ttyUSB0","mode":1,"time":"1995-01-17T07:45:52.620Z","ept":0.005}
INFO:cherrypy.access.3056629968:192.168.1.100 - - [02/Sep/2014:08:45:54] "GET / HTTP/1.1" 200 540 "http://192.168.1.99/" "Mozilla/5.0 (Linux; Android 4.4.2; Nexus 10 Build/KOT49H) AppleWebKit/537.36 (KHTML, like Gecko) Chrome/36.0.1985.135 Safari/537.36"
INFO:cherrypy.access.3056629968:192.168.1.100 - - [02/Sep/2014:08:45:59] "GET / HTTP/1.1" 200 540 "http://192.168.1.99/" "Mozilla/5.0 (Linux; Android 4.4.2; Nexus 10 Build/KOT49H) AppleWebKit/537.36 (KHTML, like Gecko) Chrome/36.0.1985.135 Safari/537.36"
DEBUG:root:02/09/2014 08:46:00 app.py | ValueError | GrabGPS() | NO GPS FOUND: {"class":"TPV","tag":"MID2","device":"/dev/ttyUSB0","mode":1,"time":"1995-01-17T07:45:59.620Z","ept":0.005}
INFO:cherrypy.access.3056629968:192.168.1.100 - - [02/Sep/2014:08:46:04] "GET / HTTP/1.1" 200 540 "http://192.168.1.99/" "Mozilla/5.0 (Linux; Android 4.4.2; Nexus 10 Build/KOT49H) AppleWebKit/537.36 (KHTML, like Gecko) Chrome/36.0.1985.135 Safari/537.36"
DEBUG:root:02/09/2014 08:46:07 app.py | ValueError | GrabGPS() | NO GPS FOUND: {"class":"TPV","tag":"MID2","device":"/dev/ttyUSB0","mode":1,"time":"1995-01-17T07:46:07.620Z","ept":0.005}
INFO:cherrypy.access.3056629968:192.168.1.100 - - [02/Sep/2014:08:46:10] "GET / HTTP/1.1" 200 540 "http://192.168.1.99/" "Mozilla/5.0 (Linux; Android 4.4.2; Nexus 10 Build/KOT49H) AppleWebKit/537.36 (KHTML, like Gecko) Chrome/36.0.1985.135 Safari/537.36"
DEBUG:root:02/09/2014 08:46:10 Checking network connection: Bus 001 Device 004: ID 046d:c52b Logitech, Inc. Unifying Receiver
Bus 001 Device 006: ID 12d1:14db Huawei Technologies Co., Ltd. E353/E3131
Bus 001 Device 007: ID 067b:2303 Prolific Technology, Inc. PL2303 Serial Port
Bus 001 Device 003: ID 0424:ec00 Standard Microsystems Corp. SMSC9512/9514 Fast Ethernet Adapter
Bus 001 Device 002: ID 0424:9514 Standard Microsystems Corp. SMC9514 Hub
Bus 001 Device 001: ID 1d6b:0002 Linux Foundation 2.0 root hub

DEBUG:root:02/09/2014 08:46:10 Network OK
DEBUG:root:02/09/2014 08:46:15 app.py | ValueError | GrabGPS() | NO GPS FOUND: {"class":"TPV","tag":"MID2","device":"/dev/ttyUSB0","mode":1,"time":"1995-01-17T07:46:14.620Z","ept":0.005}
INFO:cherrypy.access.3056629968:192.168.1.100 - - [02/Sep/2014:08:46:15] "GET / HTTP/1.1" 200 540 "http://192.168.1.99/" "Mozilla/5.0 (Linux; Android 4.4.2; Nexus 10 Build/KOT49H) AppleWebKit/537.36 (KHTML, like Gecko) Chrome/36.0.1985.135 Safari/537.36"
INFO:cherrypy.access.3056629968:192.168.1.100 - - [02/Sep/2014:08:46:21] "GET / HTTP/1.1" 200 540 "http://192.168.1.99/" "Mozilla/5.0 (Linux; Android 4.4.2; Nexus 10 Build/KOT49H) AppleWebKit/537.36 (KHTML, like Gecko) Chrome/36.0.1985.135 Safari/537.36"
DEBUG:root:02/09/2014 08:46:22 app.py | ValueError | GrabGPS() | NO GPS FOUND: {"class":"TPV","tag":"MID2","device":"/dev/ttyUSB0","mode":1,"time":"1995-01-17T07:46:22.620Z","ept":0.005}
INFO:cherrypy.access.3056629968:192.168.1.100 - - [02/Sep/2014:08:46:26] "GET / HTTP/1.1" 200 540 "http://192.168.1.99/" "Mozilla/5.0 (Linux; Android 4.4.2; Nexus 10 Build/KOT49H) AppleWebKit/537.36 (KHTML, like Gecko) Chrome/36.0.1985.135 Safari/537.36"
DEBUG:root:02/09/2014 08:46:30 app.py | ValueError | GrabGPS() | NO GPS FOUND: {"class":"TPV","tag":"MID2","device":"/dev/ttyUSB0","mode":1,"time":"1995-01-17T07:46:29.520Z","ept":0.005}
INFO:cherrypy.access.3056629968:192.168.1.100 - - [02/Sep/2014:08:46:31] "GET / HTTP/1.1" 200 540 "http://192.168.1.99/" "Mozilla/5.0 (Linux; Android 4.4.2; Nexus 10 Build/KOT49H) AppleWebKit/537.36 (KHTML, like Gecko) Chrome/36.0.1985.135 Safari/537.36"
DEBUG:root:02/09/2014 08:46:33 Checking network connection: Bus 001 Device 004: ID 046d:c52b Logitech, Inc. Unifying Receiver
Bus 001 Device 006: ID 12d1:14db Huawei Technologies Co., Ltd. E353/E3131
Bus 001 Device 007: ID 067b:2303 Prolific Technology, Inc. PL2303 Serial Port
Bus 001 Device 003: ID 0424:ec00 Standard Microsystems Corp. SMSC9512/9514 Fast Ethernet Adapter
Bus 001 Device 002: ID 0424:9514 Standard Microsystems Corp. SMC9514 Hub
Bus 001 Device 001: ID 1d6b:0002 Linux Foundation 2.0 root hub

DEBUG:root:02/09/2014 08:46:33 Network OK
INFO:cherrypy.error:[02/Sep/2014:08:46:33] ENGINE Bus STOPPING
INFO:cherrypy.error:[02/Sep/2014:08:46:34] ENGINE HTTP Server cherrypy._cpwsgi_server.CPWSGIServer(('0.0.0.0', 80)) shut down
INFO:cherrypy.error:[02/Sep/2014:08:46:34] ENGINE Stopped thread '_TimeoutMonitor'.
INFO:cherrypy.error:[02/Sep/2014:08:46:34] ENGINE Stopped thread 'Autoreloader'.
INFO:cherrypy.error:[02/Sep/2014:08:46:34] ENGINE Bus STOPPED
INFO:cherrypy.error:[02/Sep/2014:08:46:34] ENGINE Bus EXITING
INFO:cherrypy.error:[02/Sep/2014:08:46:34] ENGINE Bus EXITED
INFO:root:02/09/2014 08:47:00 Started script
INFO:root:02/09/2014 08:48:01 Started script
INFO:cherrypy.error:[02/Sep/2014:08:48:01] ENGINE Bus STARTING
INFO:cherrypy.error:[02/Sep/2014:08:48:02] ENGINE Started monitor thread 'Autoreloader'.
INFO:cherrypy.error:[02/Sep/2014:08:48:02] ENGINE Started monitor thread '_TimeoutMonitor'.
INFO:cherrypy.error:[02/Sep/2014:08:48:02] ENGINE Serving on http://0.0.0.0
INFO:cherrypy.error:[02/Sep/2014:08:48:03] ENGINE Bus STARTED
DEBUG:root:02/09/2014 08:48:03 app.py | ValueError | GrabGPS() | NO GPS FOUND: {"class":"TPV","tag":"MID2","device":"/dev/ttyUSB0","mode":1,"time":"1995-01-17T07:48:02.620Z","ept":0.005}
DEBUG:root:02/09/2014 08:48:05 Checking network connection: Bus 001 Device 004: ID 046d:c52b Logitech, Inc. Unifying Receiver
Bus 001 Device 006: ID 12d1:14db Huawei Technologies Co., Ltd. E353/E3131
Bus 001 Device 007: ID 067b:2303 Prolific Technology, Inc. PL2303 Serial Port
Bus 001 Device 003: ID 0424:ec00 Standard Microsystems Corp. SMSC9512/9514 Fast Ethernet Adapter
Bus 001 Device 002: ID 0424:9514 Standard Microsystems Corp. SMC9514 Hub
Bus 001 Device 001: ID 1d6b:0002 Linux Foundation 2.0 root hub

DEBUG:root:02/09/2014 08:48:05 Network OK
DEBUG:root:02/09/2014 08:48:10 app.py | ValueError | GrabGPS() | NO GPS FOUND: {"class":"TPV","tag":"MID2","device":"/dev/ttyUSB0","mode":1,"time":"1995-01-17T07:48:10.620Z","ept":0.005}
DEBUG:root:02/09/2014 08:48:18 app.py | ValueError | GrabGPS() | NO GPS FOUND: {"class":"TPV","tag":"MID2","device":"/dev/ttyUSB0","mode":1,"time":"1995-01-17T07:48:17.620Z","ept":0.005}
DEBUG:root:02/09/2014 08:48:25 app.py | ValueError | GrabGPS() | NO GPS FOUND: {"class":"TPV","tag":"MID2","device":"/dev/ttyUSB0","mode":1,"time":"1995-01-17T07:48:25.620Z","ept":0.005}
DEBUG:root:02/09/2014 08:48:27 Checking network connection: Bus 001 Device 004: ID 046d:c52b Logitech, Inc. Unifying Receiver
Bus 001 Device 006: ID 12d1:14db Huawei Technologies Co., Ltd. E353/E3131
Bus 001 Device 007: ID 067b:2303 Prolific Technology, Inc. PL2303 Serial Port
Bus 001 Device 003: ID 0424:ec00 Standard Microsystems Corp. SMSC9512/9514 Fast Ethernet Adapter
Bus 001 Device 002: ID 0424:9514 Standard Microsystems Corp. SMC9514 Hub
Bus 001 Device 001: ID 1d6b:0002 Linux Foundation 2.0 root hub

DEBUG:root:02/09/2014 08:48:27 Network OK
DEBUG:root:02/09/2014 08:48:33 app.py | ValueError | GrabGPS() | NO GPS FOUND: {"class":"TPV","tag":"MID2","device":"/dev/ttyUSB0","mode":1,"time":"1995-01-17T07:48:32.610Z","ept":0.005}
DEBUG:root:02/09/2014 08:48:40 app.py | ValueError | GrabGPS() | NO GPS FOUND: {"class":"TPV","tag":"MID2","device":"/dev/ttyUSB0","mode":1,"time":"1995-01-17T07:48:40.620Z","ept":0.005}
DEBUG:root:02/09/2014 08:48:48 app.py | ValueError | GrabGPS() | NO GPS FOUND: {"class":"TPV","tag":"MID2","device":"/dev/ttyUSB0","mode":1,"time":"1995-01-17T07:48:47.620Z","ept":0.005}
DEBUG:root:02/09/2014 08:48:50 Checking network connection: Bus 001 Device 004: ID 046d:c52b Logitech, Inc. Unifying Receiver
Bus 001 Device 006: ID 12d1:14db Huawei Technologies Co., Ltd. E353/E3131
Bus 001 Device 007: ID 067b:2303 Prolific Technology, Inc. PL2303 Serial Port
Bus 001 Device 003: ID 0424:ec00 Standard Microsystems Corp. SMSC9512/9514 Fast Ethernet Adapter
Bus 001 Device 002: ID 0424:9514 Standard Microsystems Corp. SMC9514 Hub
Bus 001 Device 001: ID 1d6b:0002 Linux Foundation 2.0 root hub

DEBUG:root:02/09/2014 08:48:50 Network OK
DEBUG:root:02/09/2014 08:48:55 app.py | ValueError | GrabGPS() | NO GPS FOUND: {"class":"TPV","tag":"MID2","device":"/dev/ttyUSB0","mode":1,"time":"1995-01-17T07:48:55.620Z","ept":0.005}
DEBUG:root:02/09/2014 08:49:03 app.py | ValueError | GrabGPS() | NO GPS FOUND: {"class":"TPV","tag":"MID2","device":"/dev/ttyUSB0","mode":1,"time":"1995-01-17T07:49:02.620Z","ept":0.005}
DEBUG:root:02/09/2014 08:49:11 app.py | ValueError | GrabGPS() | NO GPS FOUND: {"class":"TPV","tag":"MID2","device":"/dev/ttyUSB0","mode":1,"time":"1995-01-17T07:49:11.520Z","ept":0.005}
DEBUG:root:02/09/2014 08:49:13 Checking network connection: Bus 001 Device 004: ID 046d:c52b Logitech, Inc. Unifying Receiver
Bus 001 Device 006: ID 12d1:14db Huawei Technologies Co., Ltd. E353/E3131
Bus 001 Device 007: ID 067b:2303 Prolific Technology, Inc. PL2303 Serial Port
Bus 001 Device 003: ID 0424:ec00 Standard Microsystems Corp. SMSC9512/9514 Fast Ethernet Adapter
Bus 001 Device 002: ID 0424:9514 Standard Microsystems Corp. SMC9514 Hub
Bus 001 Device 001: ID 1d6b:0002 Linux Foundation 2.0 root hub

DEBUG:root:02/09/2014 08:49:13 Network OK
DEBUG:root:02/09/2014 08:49:20 app.py | ValueError | GrabGPS() | NO GPS FOUND: {"class":"SKY","tag":"MID4","device":"/dev/ttyUSB0","time":"1995-01-17T07:49:19.520Z","hdop":0.00,"satellites":[{"PRN":29,"el":89,"az":9,"ss":4,"used":false}]}
DEBUG:root:02/09/2014 08:49:27 app.py | ValueError | GrabGPS() | NO GPS FOUND: {"class":"TPV","tag":"MID2","device":"/dev/ttyUSB0","mode":1,"time":"1995-01-17T07:49:27.630Z","ept":0.005}
INFO:cherrypy.error:[02/Sep/2014:08:49:29] ENGINE Bus STOPPING
INFO:root:02/09/2014 08:49:39 Started script
INFO:cherrypy.error:[02/Sep/2014:08:49:39] ENGINE Bus STARTING
INFO:cherrypy.error:[02/Sep/2014:08:49:40] ENGINE Started monitor thread '_TimeoutMonitor'.
INFO:cherrypy.error:[02/Sep/2014:08:49:40] ENGINE Started monitor thread 'Autoreloader'.
INFO:cherrypy.error:[02/Sep/2014:08:49:41] ENGINE Serving on http://0.0.0.0
INFO:cherrypy.error:[02/Sep/2014:08:49:41] ENGINE Bus STARTED
DEBUG:root:02/09/2014 08:49:41 app.py | ValueError | GrabGPS() | NO GPS FOUND: {"class":"TPV","tag":"MID2","device":"/dev/ttyUSB0","mode":1,"time":"1995-01-17T07:49:40.630Z","ept":0.005}
DEBUG:root:02/09/2014 08:49:43 Checking network connection: Bus 001 Device 004: ID 046d:c52b Logitech, Inc. Unifying Receiver
Bus 001 Device 006: ID 12d1:14db Huawei Technologies Co., Ltd. E353/E3131
Bus 001 Device 007: ID 067b:2303 Prolific Technology, Inc. PL2303 Serial Port
Bus 001 Device 003: ID 0424:ec00 Standard Microsystems Corp. SMSC9512/9514 Fast Ethernet Adapter
Bus 001 Device 002: ID 0424:9514 Standard Microsystems Corp. SMC9514 Hub
Bus 001 Device 001: ID 1d6b:0002 Linux Foundation 2.0 root hub

DEBUG:root:02/09/2014 08:49:43 Network OK
DEBUG:root:02/09/2014 08:49:48 app.py | ValueError | GrabGPS() | NO GPS FOUND: {"class":"TPV","tag":"MID2","device":"/dev/ttyUSB0","mode":1,"time":"1995-01-17T07:49:48.630Z","ept":0.005}
DEBUG:root:02/09/2014 08:49:56 app.py | ValueError | GrabGPS() | NO GPS FOUND: {"class":"TPV","tag":"MID2","device":"/dev/ttyUSB0","mode":1,"time":"1995-01-17T07:49:55.620Z","ept":0.005}
DEBUG:root:02/09/2014 08:50:03 app.py | ValueError | GrabGPS() | NO GPS FOUND: {"class":"TPV","tag":"MID2","device":"/dev/ttyUSB0","mode":1,"time":"1995-01-17T07:50:03.620Z","ept":0.005}
DEBUG:root:02/09/2014 08:50:06 Checking network connection: Bus 001 Device 004: ID 046d:c52b Logitech, Inc. Unifying Receiver
Bus 001 Device 006: ID 12d1:14db Huawei Technologies Co., Ltd. E353/E3131
Bus 001 Device 007: ID 067b:2303 Prolific Technology, Inc. PL2303 Serial Port
Bus 001 Device 003: ID 0424:ec00 Standard Microsystems Corp. SMSC9512/9514 Fast Ethernet Adapter
Bus 001 Device 002: ID 0424:9514 Standard Microsystems Corp. SMC9514 Hub
Bus 001 Device 001: ID 1d6b:0002 Linux Foundation 2.0 root hub

DEBUG:root:02/09/2014 08:50:06 Network OK
DEBUG:root:02/09/2014 08:50:11 app.py | ValueError | GrabGPS() | NO GPS FOUND: {"class":"TPV","tag":"MID2","device":"/dev/ttyUSB0","mode":1,"time":"1995-01-17T07:50:10.620Z","ept":0.005}
DEBUG:root:02/09/2014 08:50:18 app.py | ValueError | GrabGPS() | NO GPS FOUND: {"class":"TPV","tag":"MID2","device":"/dev/ttyUSB0","mode":1,"time":"1995-01-17T07:50:18.620Z","ept":0.005}
DEBUG:root:02/09/2014 08:50:27 app.py | ValueError | GrabGPS() | NO GPS FOUND: {"class":"SKY","tag":"MID4","device":"/dev/ttyUSB0","time":"1995-01-17T07:50:26.620Z","hdop":0.00,"satellites":[{"PRN":24,"el":34,"az":78,"ss":24,"used":false}]}
DEBUG:root:02/09/2014 08:50:28 Checking network connection: Bus 001 Device 004: ID 046d:c52b Logitech, Inc. Unifying Receiver
Bus 001 Device 006: ID 12d1:14db Huawei Technologies Co., Ltd. E353/E3131
Bus 001 Device 007: ID 067b:2303 Prolific Technology, Inc. PL2303 Serial Port
Bus 001 Device 003: ID 0424:ec00 Standard Microsystems Corp. SMSC9512/9514 Fast Ethernet Adapter
Bus 001 Device 002: ID 0424:9514 Standard Microsystems Corp. SMC9514 Hub
Bus 001 Device 001: ID 1d6b:0002 Linux Foundation 2.0 root hub

DEBUG:root:02/09/2014 08:50:28 Network OK
DEBUG:root:02/09/2014 08:50:34 app.py | ValueError | GrabGPS() | NO GPS FOUND: {"class":"TPV","tag":"MID2","device":"/dev/ttyUSB0","mode":1,"time":"1995-01-17T07:50:34.520Z","ept":0.005}
DEBUG:root:02/09/2014 08:50:42 app.py | ValueError | GrabGPS() | NO GPS FOUND: {"class":"TPV","tag":"MID2","device":"/dev/ttyUSB0","mode":1,"time":"1995-01-17T07:50:41.620Z","ept":0.005}
DEBUG:root:02/09/2014 08:50:49 app.py | ValueError | GrabGPS() | NO GPS FOUND: {"class":"TPV","tag":"MID2","device":"/dev/ttyUSB0","mode":1,"time":"1995-01-17T07:50:49.610Z","ept":0.005}
INFO:cherrypy.error:[02/Sep/2014:08:50:51] ENGINE Bus STOPPING
INFO:cherrypy.error:[02/Sep/2014:08:50:51] ENGINE HTTP Server cherrypy._cpwsgi_server.CPWSGIServer(('0.0.0.0', 80)) shut down
INFO:cherrypy.error:[02/Sep/2014:08:50:51] ENGINE Stopped thread 'Autoreloader'.
INFO:cherrypy.error:[02/Sep/2014:08:50:51] ENGINE Stopped thread '_TimeoutMonitor'.
INFO:cherrypy.error:[02/Sep/2014:08:50:51] ENGINE Bus STOPPED
INFO:cherrypy.error:[02/Sep/2014:08:50:51] ENGINE Bus EXITING
INFO:cherrypy.error:[02/Sep/2014:08:50:51] ENGINE Bus EXITED
INFO:root:02/09/2014 08:51:02 Started script
INFO:root:02/09/2014 08:51:21 Started script
INFO:cherrypy.error:[02/Sep/2014:08:51:21] ENGINE Bus STARTING
INFO:cherrypy.error:[02/Sep/2014:08:51:21] ENGINE Started monitor thread '_TimeoutMonitor'.
INFO:cherrypy.error:[02/Sep/2014:08:51:22] ENGINE Started monitor thread 'Autoreloader'.
INFO:cherrypy.error:[02/Sep/2014:08:51:22] ENGINE Serving on http://0.0.0.0
DEBUG:root:02/09/2014 08:51:23 app.py | ValueError | GrabGPS() | NO GPS FOUND: {"class":"TPV","tag":"MID2","device":"/dev/ttyUSB0","mode":1,"time":"1995-01-17T07:51:22.630Z","ept":0.005}
INFO:cherrypy.error:[02/Sep/2014:08:51:22] ENGINE Bus STARTED
DEBUG:root:02/09/2014 08:51:25 Checking network connection: Bus 001 Device 004: ID 046d:c52b Logitech, Inc. Unifying Receiver
Bus 001 Device 006: ID 12d1:14db Huawei Technologies Co., Ltd. E353/E3131
Bus 001 Device 007: ID 067b:2303 Prolific Technology, Inc. PL2303 Serial Port
Bus 001 Device 003: ID 0424:ec00 Standard Microsystems Corp. SMSC9512/9514 Fast Ethernet Adapter
Bus 001 Device 002: ID 0424:9514 Standard Microsystems Corp. SMC9514 Hub
Bus 001 Device 001: ID 1d6b:0002 Linux Foundation 2.0 root hub

DEBUG:root:02/09/2014 08:51:25 Network OK
DEBUG:root:02/09/2014 08:51:29 app.py | ValueError | GrabGPS() | NO GPS FOUND: {"class":"TPV","tag":"MID2","device":"/dev/ttyUSB0","mode":1,"time":"1995-01-17T07:51:28.630Z","ept":0.005}
DEBUG:root:02/09/2014 08:51:36 app.py | ValueError | GrabGPS() | NO GPS FOUND: {"class":"TPV","tag":"MID2","device":"/dev/ttyUSB0","mode":1,"time":"1995-01-17T07:51:36.610Z","ept":0.005}
DEBUG:root:02/09/2014 08:51:44 app.py | ValueError | GrabGPS() | NO GPS FOUND: {"class":"TPV","tag":"MID2","device":"/dev/ttyUSB0","mode":1,"time":"1995-01-17T07:51:43.610Z","ept":0.005}
DEBUG:root:02/09/2014 08:51:47 Checking network connection: Bus 001 Device 004: ID 046d:c52b Logitech, Inc. Unifying Receiver
Bus 001 Device 006: ID 12d1:14db Huawei Technologies Co., Ltd. E353/E3131
Bus 001 Device 007: ID 067b:2303 Prolific Technology, Inc. PL2303 Serial Port
Bus 001 Device 003: ID 0424:ec00 Standard Microsystems Corp. SMSC9512/9514 Fast Ethernet Adapter
Bus 001 Device 002: ID 0424:9514 Standard Microsystems Corp. SMC9514 Hub
Bus 001 Device 001: ID 1d6b:0002 Linux Foundation 2.0 root hub

DEBUG:root:02/09/2014 08:51:47 Network OK
DEBUG:root:02/09/2014 08:51:51 app.py | ValueError | GrabGPS() | NO GPS FOUND: {"class":"TPV","tag":"MID2","device":"/dev/ttyUSB0","mode":1,"time":"1995-01-17T07:51:51.610Z","ept":0.005}
DEBUG:root:02/09/2014 08:51:59 app.py | ValueError | GrabGPS() | NO GPS FOUND: {"class":"TPV","tag":"MID2","device":"/dev/ttyUSB0","mode":1,"time":"1995-01-17T07:51:58.610Z","ept":0.005}
DEBUG:root:02/09/2014 08:52:07 app.py | ValueError | GrabGPS() | NO GPS FOUND: {"class":"TPV","tag":"MID2","device":"/dev/ttyUSB0","mode":1,"time":"1995-01-17T07:52:06.630Z","ept":0.005}
DEBUG:root:02/09/2014 08:52:10 Checking network connection: Bus 001 Device 004: ID 046d:c52b Logitech, Inc. Unifying Receiver
Bus 001 Device 006: ID 12d1:14db Huawei Technologies Co., Ltd. E353/E3131
Bus 001 Device 007: ID 067b:2303 Prolific Technology, Inc. PL2303 Serial Port
Bus 001 Device 003: ID 0424:ec00 Standard Microsystems Corp. SMSC9512/9514 Fast Ethernet Adapter
Bus 001 Device 002: ID 0424:9514 Standard Microsystems Corp. SMC9514 Hub
Bus 001 Device 001: ID 1d6b:0002 Linux Foundation 2.0 root hub

DEBUG:root:02/09/2014 08:52:10 Network OK
DEBUG:root:02/09/2014 08:52:14 app.py | ValueError | GrabGPS() | NO GPS FOUND: {"class":"TPV","tag":"MID2","device":"/dev/ttyUSB0","mode":1,"time":"1995-01-17T07:52:13.620Z","ept":0.005}
DEBUG:root:02/09/2014 08:52:22 app.py | ValueError | GrabGPS() | NO GPS FOUND: {"class":"TPV","tag":"MID2","device":"/dev/ttyUSB0","mode":1,"time":"1995-01-17T07:52:21.620Z","ept":0.005}
DEBUG:root:02/09/2014 08:52:29 app.py | ValueError | GrabGPS() | NO GPS FOUND: {"class":"TPV","tag":"MID2","device":"/dev/ttyUSB0","mode":1,"time":"1995-01-17T07:52:28.620Z","ept":0.005}
DEBUG:root:02/09/2014 08:52:33 Checking network connection: Bus 001 Device 004: ID 046d:c52b Logitech, Inc. Unifying Receiver
Bus 001 Device 006: ID 12d1:14db Huawei Technologies Co., Ltd. E353/E3131
Bus 001 Device 007: ID 067b:2303 Prolific Technology, Inc. PL2303 Serial Port
Bus 001 Device 003: ID 0424:ec00 Standard Microsystems Corp. SMSC9512/9514 Fast Ethernet Adapter
Bus 001 Device 002: ID 0424:9514 Standard Microsystems Corp. SMC9514 Hub
Bus 001 Device 001: ID 1d6b:0002 Linux Foundation 2.0 root hub

DEBUG:root:02/09/2014 08:52:33 Network OK
DEBUG:root:02/09/2014 08:52:37 app.py | ValueError | GrabGPS() | NO GPS FOUND: {"class":"TPV","tag":"MID2","device":"/dev/ttyUSB0","mode":1,"time":"1995-01-17T07:52:36.620Z","ept":0.005}
DEBUG:root:02/09/2014 08:52:44 app.py | ValueError | GrabGPS() | NO GPS FOUND: {"class":"TPV","tag":"MID2","device":"/dev/ttyUSB0","mode":1,"time":"1995-01-17T07:52:43.620Z","ept":0.005}
DEBUG:root:02/09/2014 08:52:52 app.py | ValueError | GrabGPS() | NO GPS FOUND: {"class":"TPV","tag":"MID2","device":"/dev/ttyUSB0","mode":1,"time":"1995-01-17T07:52:51.620Z","ept":0.005}
DEBUG:root:02/09/2014 08:52:55 Checking network connection: Bus 001 Device 004: ID 046d:c52b Logitech, Inc. Unifying Receiver
Bus 001 Device 006: ID 12d1:14db Huawei Technologies Co., Ltd. E353/E3131
Bus 001 Device 007: ID 067b:2303 Prolific Technology, Inc. PL2303 Serial Port
Bus 001 Device 003: ID 0424:ec00 Standard Microsystems Corp. SMSC9512/9514 Fast Ethernet Adapter
Bus 001 Device 002: ID 0424:9514 Standard Microsystems Corp. SMC9514 Hub
Bus 001 Device 001: ID 1d6b:0002 Linux Foundation 2.0 root hub

DEBUG:root:02/09/2014 08:52:55 Network OK
DEBUG:root:02/09/2014 08:52:59 app.py | ValueError | GrabGPS() | NO GPS FOUND: {"class":"TPV","tag":"MID2","device":"/dev/ttyUSB0","mode":1,"time":"1995-01-17T07:52:58.610Z","ept":0.005}
DEBUG:root:02/09/2014 08:53:07 app.py | ValueError | GrabGPS() | NO GPS FOUND: {"class":"TPV","tag":"MID2","device":"/dev/ttyUSB0","mode":1,"time":"1995-01-17T07:53:06.610Z","ept":0.005}
DEBUG:root:02/09/2014 08:53:14 app.py | ValueError | GrabGPS() | NO GPS FOUND: {"class":"TPV","tag":"MID2","device":"/dev/ttyUSB0","mode":1,"time":"1995-01-17T07:53:13.610Z","ept":0.005}
DEBUG:root:02/09/2014 08:53:18 Checking network connection: Bus 001 Device 004: ID 046d:c52b Logitech, Inc. Unifying Receiver
Bus 001 Device 006: ID 12d1:14db Huawei Technologies Co., Ltd. E353/E3131
Bus 001 Device 007: ID 067b:2303 Prolific Technology, Inc. PL2303 Serial Port
Bus 001 Device 003: ID 0424:ec00 Standard Microsystems Corp. SMSC9512/9514 Fast Ethernet Adapter
Bus 001 Device 002: ID 0424:9514 Standard Microsystems Corp. SMC9514 Hub
Bus 001 Device 001: ID 1d6b:0002 Linux Foundation 2.0 root hub

DEBUG:root:02/09/2014 08:53:18 Network OK
DEBUG:root:02/09/2014 08:53:22 app.py | ValueError | GrabGPS() | NO GPS FOUND: {"class":"TPV","tag":"MID2","device":"/dev/ttyUSB0","mode":1,"time":"1995-01-17T07:53:21.610Z","ept":0.005}
DEBUG:root:02/09/2014 08:53:29 app.py | ValueError | GrabGPS() | NO GPS FOUND: {"class":"TPV","tag":"MID2","device":"/dev/ttyUSB0","mode":1,"time":"1995-01-17T07:53:28.610Z","ept":0.005}
DEBUG:root:02/09/2014 08:53:38 app.py | ValueError | GrabGPS() | NO GPS FOUND: {"class":"TPV","tag":"MID2","device":"/dev/ttyUSB0","mode":1,"time":"1995-01-17T07:53:37.610Z","ept":0.005}
DEBUG:root:02/09/2014 08:53:41 Checking network connection: Bus 001 Device 004: ID 046d:c52b Logitech, Inc. Unifying Receiver
Bus 001 Device 006: ID 12d1:14db Huawei Technologies Co., Ltd. E353/E3131
Bus 001 Device 007: ID 067b:2303 Prolific Technology, Inc. PL2303 Serial Port
Bus 001 Device 003: ID 0424:ec00 Standard Microsystems Corp. SMSC9512/9514 Fast Ethernet Adapter
Bus 001 Device 002: ID 0424:9514 Standard Microsystems Corp. SMC9514 Hub
Bus 001 Device 001: ID 1d6b:0002 Linux Foundation 2.0 root hub

DEBUG:root:02/09/2014 08:53:41 Network OK
DEBUG:root:02/09/2014 08:53:46 app.py | ValueError | GrabGPS() | NO GPS FOUND: {"class":"SKY","tag":"MID4","device":"/dev/ttyUSB0","time":"1995-01-17T07:53:45.610Z","hdop":0.00,"satellites":[{"PRN":29,"el":90,"az":180,"ss":24,"used":false}]}
DEBUG:root:02/09/2014 08:53:54 app.py | ValueError | GrabGPS() | NO GPS FOUND: {"class":"TPV","tag":"MID2","device":"/dev/ttyUSB0","mode":1,"time":"1995-01-17T07:53:53.610Z","ept":0.005}
DEBUG:root:02/09/2014 08:54:01 app.py | ValueError | GrabGPS() | NO GPS FOUND: {"class":"TPV","tag":"MID2","device":"/dev/ttyUSB0","mode":1,"time":"1995-01-17T07:54:00.610Z","ept":0.005}
DEBUG:root:02/09/2014 08:54:04 Checking network connection: Bus 001 Device 004: ID 046d:c52b Logitech, Inc. Unifying Receiver
Bus 001 Device 006: ID 12d1:14db Huawei Technologies Co., Ltd. E353/E3131
Bus 001 Device 007: ID 067b:2303 Prolific Technology, Inc. PL2303 Serial Port
Bus 001 Device 003: ID 0424:ec00 Standard Microsystems Corp. SMSC9512/9514 Fast Ethernet Adapter
Bus 001 Device 002: ID 0424:9514 Standard Microsystems Corp. SMC9514 Hub
Bus 001 Device 001: ID 1d6b:0002 Linux Foundation 2.0 root hub

DEBUG:root:02/09/2014 08:54:04 Network OK
DEBUG:root:02/09/2014 08:54:09 app.py | ValueError | GrabGPS() | NO GPS FOUND: {"class":"TPV","tag":"MID2","device":"/dev/ttyUSB0","mode":1,"time":"1995-01-17T07:54:08.610Z","ept":0.005}
DEBUG:root:02/09/2014 08:54:16 app.py | ValueError | GrabGPS() | NO GPS FOUND: {"class":"TPV","tag":"MID2","device":"/dev/ttyUSB0","mode":1,"time":"1995-01-17T07:54:15.620Z","ept":0.005}
DEBUG:root:02/09/2014 08:54:24 app.py | ValueError | GrabGPS() | NO GPS FOUND: {"class":"TPV","tag":"MID2","device":"/dev/ttyUSB0","mode":1,"time":"1995-01-17T07:54:23.620Z","ept":0.005}
DEBUG:root:02/09/2014 08:54:27 Checking network connection: Bus 001 Device 004: ID 046d:c52b Logitech, Inc. Unifying Receiver
Bus 001 Device 006: ID 12d1:14db Huawei Technologies Co., Ltd. E353/E3131
Bus 001 Device 007: ID 067b:2303 Prolific Technology, Inc. PL2303 Serial Port
Bus 001 Device 003: ID 0424:ec00 Standard Microsystems Corp. SMSC9512/9514 Fast Ethernet Adapter
Bus 001 Device 002: ID 0424:9514 Standard Microsystems Corp. SMC9514 Hub
Bus 001 Device 001: ID 1d6b:0002 Linux Foundation 2.0 root hub

DEBUG:root:02/09/2014 08:54:27 Network OK
DEBUG:root:02/09/2014 08:54:31 app.py | ValueError | GrabGPS() | NO GPS FOUND: {"class":"TPV","tag":"MID2","device":"/dev/ttyUSB0","mode":1,"time":"1995-01-17T07:54:30.620Z","ept":0.005}
DEBUG:root:02/09/2014 08:54:39 app.py | ValueError | GrabGPS() | NO GPS FOUND: {"class":"TPV","tag":"MID2","device":"/dev/ttyUSB0","mode":1,"time":"1995-01-17T07:54:38.620Z","ept":0.005}
DEBUG:root:02/09/2014 08:54:46 app.py | ValueError | GrabGPS() | NO GPS FOUND: {"class":"TPV","tag":"MID2","device":"/dev/ttyUSB0","mode":1,"time":"1995-01-17T07:54:45.620Z","ept":0.005}
DEBUG:root:02/09/2014 08:54:50 Checking network connection: Bus 001 Device 004: ID 046d:c52b Logitech, Inc. Unifying Receiver
Bus 001 Device 006: ID 12d1:14db Huawei Technologies Co., Ltd. E353/E3131
Bus 001 Device 007: ID 067b:2303 Prolific Technology, Inc. PL2303 Serial Port
Bus 001 Device 003: ID 0424:ec00 Standard Microsystems Corp. SMSC9512/9514 Fast Ethernet Adapter
Bus 001 Device 002: ID 0424:9514 Standard Microsystems Corp. SMC9514 Hub
Bus 001 Device 001: ID 1d6b:0002 Linux Foundation 2.0 root hub

DEBUG:root:02/09/2014 08:54:50 Network OK
DEBUG:root:02/09/2014 08:54:54 app.py | ValueError | GrabGPS() | NO GPS FOUND: {"class":"TPV","tag":"MID2","device":"/dev/ttyUSB0","mode":1,"time":"1995-01-17T07:54:53.610Z","ept":0.005}
DEBUG:root:02/09/2014 08:55:01 app.py | ValueError | GrabGPS() | NO GPS FOUND: {"class":"TPV","tag":"MID2","device":"/dev/ttyUSB0","mode":1,"time":"1995-01-17T07:55:00.610Z","ept":0.005}
DEBUG:root:02/09/2014 08:55:09 app.py | ValueError | GrabGPS() | NO GPS FOUND: {"class":"TPV","tag":"MID2","device":"/dev/ttyUSB0","mode":1,"time":"1995-01-17T07:55:08.620Z","ept":0.005}
DEBUG:root:02/09/2014 08:55:12 Checking network connection: Bus 001 Device 004: ID 046d:c52b Logitech, Inc. Unifying Receiver
Bus 001 Device 006: ID 12d1:14db Huawei Technologies Co., Ltd. E353/E3131
Bus 001 Device 007: ID 067b:2303 Prolific Technology, Inc. PL2303 Serial Port
Bus 001 Device 003: ID 0424:ec00 Standard Microsystems Corp. SMSC9512/9514 Fast Ethernet Adapter
Bus 001 Device 002: ID 0424:9514 Standard Microsystems Corp. SMC9514 Hub
Bus 001 Device 001: ID 1d6b:0002 Linux Foundation 2.0 root hub

DEBUG:root:02/09/2014 08:55:12 Network OK
DEBUG:root:02/09/2014 08:55:16 app.py | ValueError | GrabGPS() | NO GPS FOUND: {"class":"TPV","tag":"MID2","device":"/dev/ttyUSB0","mode":1,"time":"1995-01-17T07:55:15.620Z","ept":0.005}
DEBUG:root:02/09/2014 08:55:24 app.py | ValueError | GrabGPS() | NO GPS FOUND: {"class":"TPV","tag":"MID2","device":"/dev/ttyUSB0","mode":1,"time":"1995-01-17T07:55:23.620Z","ept":0.005}
DEBUG:root:02/09/2014 08:55:31 app.py | ValueError | GrabGPS() | NO GPS FOUND: {"class":"TPV","tag":"MID2","device":"/dev/ttyUSB0","mode":1,"time":"1995-01-17T07:55:30.620Z","ept":0.005}
DEBUG:root:02/09/2014 08:55:35 Checking network connection: Bus 001 Device 004: ID 046d:c52b Logitech, Inc. Unifying Receiver
Bus 001 Device 006: ID 12d1:14db Huawei Technologies Co., Ltd. E353/E3131
Bus 001 Device 007: ID 067b:2303 Prolific Technology, Inc. PL2303 Serial Port
Bus 001 Device 003: ID 0424:ec00 Standard Microsystems Corp. SMSC9512/9514 Fast Ethernet Adapter
Bus 001 Device 002: ID 0424:9514 Standard Microsystems Corp. SMC9514 Hub
Bus 001 Device 001: ID 1d6b:0002 Linux Foundation 2.0 root hub

DEBUG:root:02/09/2014 08:55:35 Network OK
DEBUG:root:02/09/2014 08:55:39 app.py | ValueError | GrabGPS() | NO GPS FOUND: {"class":"TPV","tag":"MID2","device":"/dev/ttyUSB0","mode":1,"time":"1995-01-17T07:55:38.620Z","ept":0.005}
DEBUG:root:02/09/2014 08:55:46 app.py | ValueError | GrabGPS() | NO GPS FOUND: {"class":"TPV","tag":"MID2","device":"/dev/ttyUSB0","mode":1,"time":"1995-01-17T07:55:45.620Z","ept":0.005}
DEBUG:root:02/09/2014 08:55:55 app.py | ValueError | GrabGPS() | NO GPS FOUND: {"class":"TPV","tag":"MID2","device":"/dev/ttyUSB0","mode":1,"time":"1995-01-17T07:55:54.610Z","ept":0.005}
DEBUG:root:02/09/2014 08:55:58 Checking network connection: Bus 001 Device 004: ID 046d:c52b Logitech, Inc. Unifying Receiver
Bus 001 Device 006: ID 12d1:14db Huawei Technologies Co., Ltd. E353/E3131
Bus 001 Device 007: ID 067b:2303 Prolific Technology, Inc. PL2303 Serial Port
Bus 001 Device 003: ID 0424:ec00 Standard Microsystems Corp. SMSC9512/9514 Fast Ethernet Adapter
Bus 001 Device 002: ID 0424:9514 Standard Microsystems Corp. SMC9514 Hub
Bus 001 Device 001: ID 1d6b:0002 Linux Foundation 2.0 root hub

DEBUG:root:02/09/2014 08:55:58 Network OK
DEBUG:root:02/09/2014 08:56:03 app.py | ValueError | GrabGPS() | NO GPS FOUND: {"class":"SKY","tag":"MID4","device":"/dev/ttyUSB0","time":"1995-01-17T07:56:02.620Z","hdop":0.00,"satellites":[{"PRN":29,"el":90,"az":178,"ss":24,"used":false}]}
DEBUG:root:02/09/2014 08:56:11 app.py | ValueError | GrabGPS() | NO GPS FOUND: {"class":"TPV","tag":"MID2","device":"/dev/ttyUSB0","mode":1,"time":"1995-01-17T07:56:10.620Z","ept":0.005}
DEBUG:root:02/09/2014 08:56:18 app.py | ValueError | GrabGPS() | NO GPS FOUND: {"class":"TPV","tag":"MID2","device":"/dev/ttyUSB0","mode":1,"time":"1995-01-17T07:56:17.620Z","ept":0.005}
DEBUG:root:02/09/2014 08:56:21 Checking network connection: Bus 001 Device 004: ID 046d:c52b Logitech, Inc. Unifying Receiver
Bus 001 Device 006: ID 12d1:14db Huawei Technologies Co., Ltd. E353/E3131
Bus 001 Device 007: ID 067b:2303 Prolific Technology, Inc. PL2303 Serial Port
Bus 001 Device 003: ID 0424:ec00 Standard Microsystems Corp. SMSC9512/9514 Fast Ethernet Adapter
Bus 001 Device 002: ID 0424:9514 Standard Microsystems Corp. SMC9514 Hub
Bus 001 Device 001: ID 1d6b:0002 Linux Foundation 2.0 root hub

DEBUG:root:02/09/2014 08:56:21 Network OK
DEBUG:root:02/09/2014 08:56:26 app.py | ValueError | GrabGPS() | NO GPS FOUND: {"class":"TPV","tag":"MID2","device":"/dev/ttyUSB0","mode":1,"time":"1995-01-17T07:56:25.620Z","ept":0.005}
DEBUG:root:02/09/2014 08:56:33 app.py | ValueError | GrabGPS() | NO GPS FOUND: {"class":"TPV","tag":"MID2","device":"/dev/ttyUSB0","mode":1,"time":"1995-01-17T07:56:32.610Z","ept":0.005}
DEBUG:root:02/09/2014 08:56:41 app.py | ValueError | GrabGPS() | NO GPS FOUND: {"class":"TPV","tag":"MID2","device":"/dev/ttyUSB0","mode":1,"time":"1995-01-17T07:56:40.620Z","ept":0.005}
DEBUG:root:02/09/2014 08:56:44 Checking network connection: Bus 001 Device 004: ID 046d:c52b Logitech, Inc. Unifying Receiver
Bus 001 Device 006: ID 12d1:14db Huawei Technologies Co., Ltd. E353/E3131
Bus 001 Device 007: ID 067b:2303 Prolific Technology, Inc. PL2303 Serial Port
Bus 001 Device 003: ID 0424:ec00 Standard Microsystems Corp. SMSC9512/9514 Fast Ethernet Adapter
Bus 001 Device 002: ID 0424:9514 Standard Microsystems Corp. SMC9514 Hub
Bus 001 Device 001: ID 1d6b:0002 Linux Foundation 2.0 root hub

DEBUG:root:02/09/2014 08:56:44 Network OK
DEBUG:root:02/09/2014 08:56:48 app.py | ValueError | GrabGPS() | NO GPS FOUND: {"class":"TPV","tag":"MID2","device":"/dev/ttyUSB0","mode":1,"time":"1995-01-17T07:56:47.630Z","ept":0.005}
DEBUG:root:02/09/2014 08:56:56 app.py | ValueError | GrabGPS() | NO GPS FOUND: {"class":"TPV","tag":"MID2","device":"/dev/ttyUSB0","mode":1,"time":"1995-01-17T07:56:55.620Z","ept":0.005}
DEBUG:root:02/09/2014 08:57:03 app.py | ValueError | GrabGPS() | NO GPS FOUND: {"class":"TPV","tag":"MID2","device":"/dev/ttyUSB0","mode":1,"time":"1995-01-17T07:57:02.630Z","ept":0.005}
DEBUG:root:02/09/2014 08:57:07 Checking network connection: Bus 001 Device 004: ID 046d:c52b Logitech, Inc. Unifying Receiver
Bus 001 Device 006: ID 12d1:14db Huawei Technologies Co., Ltd. E353/E3131
Bus 001 Device 007: ID 067b:2303 Prolific Technology, Inc. PL2303 Serial Port
Bus 001 Device 003: ID 0424:ec00 Standard Microsystems Corp. SMSC9512/9514 Fast Ethernet Adapter
Bus 001 Device 002: ID 0424:9514 Standard Microsystems Corp. SMC9514 Hub
Bus 001 Device 001: ID 1d6b:0002 Linux Foundation 2.0 root hub

DEBUG:root:02/09/2014 08:57:07 Network OK
DEBUG:root:02/09/2014 08:57:11 app.py | ValueError | GrabGPS() | NO GPS FOUND: {"class":"TPV","tag":"MID2","device":"/dev/ttyUSB0","mode":1,"time":"1995-01-17T07:57:10.630Z","ept":0.005}
DEBUG:root:02/09/2014 08:57:18 app.py | ValueError | GrabGPS() | NO GPS FOUND: {"class":"TPV","tag":"MID2","device":"/dev/ttyUSB0","mode":1,"time":"1995-01-17T07:57:17.630Z","ept":0.005}
DEBUG:root:02/09/2014 08:57:26 app.py | ValueError | GrabGPS() | NO GPS FOUND: {"class":"TPV","tag":"MID2","device":"/dev/ttyUSB0","mode":1,"time":"1995-01-17T07:57:25.630Z","ept":0.005}
DEBUG:root:02/09/2014 08:57:30 Checking network connection: Bus 001 Device 004: ID 046d:c52b Logitech, Inc. Unifying Receiver
Bus 001 Device 006: ID 12d1:14db Huawei Technologies Co., Ltd. E353/E3131
Bus 001 Device 007: ID 067b:2303 Prolific Technology, Inc. PL2303 Serial Port
Bus 001 Device 003: ID 0424:ec00 Standard Microsystems Corp. SMSC9512/9514 Fast Ethernet Adapter
Bus 001 Device 002: ID 0424:9514 Standard Microsystems Corp. SMC9514 Hub
Bus 001 Device 001: ID 1d6b:0002 Linux Foundation 2.0 root hub

DEBUG:root:02/09/2014 08:57:30 Network OK
DEBUG:root:02/09/2014 08:57:33 app.py | ValueError | GrabGPS() | NO GPS FOUND: {"class":"TPV","tag":"MID2","device":"/dev/ttyUSB0","mode":1,"time":"1995-01-17T07:57:32.620Z","ept":0.005}
DEBUG:root:02/09/2014 08:57:41 app.py | ValueError | GrabGPS() | NO GPS FOUND: {"class":"TPV","tag":"MID2","device":"/dev/ttyUSB0","mode":1,"time":"1995-01-17T07:57:40.620Z","ept":0.005}
DEBUG:root:02/09/2014 08:57:48 app.py | ValueError | GrabGPS() | NO GPS FOUND: {"class":"TPV","tag":"MID2","device":"/dev/ttyUSB0","mode":1,"time":"1995-01-17T07:57:47.620Z","ept":0.005}
DEBUG:root:02/09/2014 08:57:53 Checking network connection: Bus 001 Device 004: ID 046d:c52b Logitech, Inc. Unifying Receiver
Bus 001 Device 006: ID 12d1:14db Huawei Technologies Co., Ltd. E353/E3131
Bus 001 Device 007: ID 067b:2303 Prolific Technology, Inc. PL2303 Serial Port
Bus 001 Device 003: ID 0424:ec00 Standard Microsystems Corp. SMSC9512/9514 Fast Ethernet Adapter
Bus 001 Device 002: ID 0424:9514 Standard Microsystems Corp. SMC9514 Hub
Bus 001 Device 001: ID 1d6b:0002 Linux Foundation 2.0 root hub

DEBUG:root:02/09/2014 08:57:53 Network OK
DEBUG:root:02/09/2014 08:57:56 app.py | ValueError | GrabGPS() | NO GPS FOUND: {"class":"TPV","tag":"MID2","device":"/dev/ttyUSB0","mode":1,"time":"1995-01-17T07:57:55.630Z","ept":0.005}
DEBUG:root:02/09/2014 08:58:03 app.py | ValueError | GrabGPS() | NO GPS FOUND: {"class":"TPV","tag":"MID2","device":"/dev/ttyUSB0","mode":1,"time":"1995-01-17T07:58:02.630Z","ept":0.005}
DEBUG:root:02/09/2014 08:58:12 app.py | ValueError | GrabGPS() | NO GPS FOUND: {"class":"TPV","tag":"MID2","device":"/dev/ttyUSB0","mode":1,"time":"1995-01-17T07:58:11.630Z","ept":0.005}
DEBUG:root:02/09/2014 08:58:16 Checking network connection: Bus 001 Device 004: ID 046d:c52b Logitech, Inc. Unifying Receiver
Bus 001 Device 006: ID 12d1:14db Huawei Technologies Co., Ltd. E353/E3131
Bus 001 Device 007: ID 067b:2303 Prolific Technology, Inc. PL2303 Serial Port
Bus 001 Device 003: ID 0424:ec00 Standard Microsystems Corp. SMSC9512/9514 Fast Ethernet Adapter
Bus 001 Device 002: ID 0424:9514 Standard Microsystems Corp. SMC9514 Hub
Bus 001 Device 001: ID 1d6b:0002 Linux Foundation 2.0 root hub

DEBUG:root:02/09/2014 08:58:16 Network OK
DEBUG:root:02/09/2014 08:58:20 app.py | ValueError | GrabGPS() | NO GPS FOUND: {"class":"SKY","tag":"MID4","device":"/dev/ttyUSB0","time":"1995-01-17T07:58:19.620Z","hdop":0.00}
DEBUG:root:02/09/2014 08:58:28 app.py | ValueError | GrabGPS() | NO GPS FOUND: {"class":"TPV","tag":"MID2","device":"/dev/ttyUSB0","mode":1,"time":"1995-01-17T07:58:27.620Z","ept":0.005}
DEBUG:root:02/09/2014 08:58:35 app.py | ValueError | GrabGPS() | NO GPS FOUND: {"class":"TPV","tag":"MID2","device":"/dev/ttyUSB0","mode":1,"time":"1995-01-17T07:58:34.620Z","ept":0.005}
DEBUG:root:02/09/2014 08:58:38 Checking network connection: Bus 001 Device 004: ID 046d:c52b Logitech, Inc. Unifying Receiver
Bus 001 Device 006: ID 12d1:14db Huawei Technologies Co., Ltd. E353/E3131
Bus 001 Device 007: ID 067b:2303 Prolific Technology, Inc. PL2303 Serial Port
Bus 001 Device 003: ID 0424:ec00 Standard Microsystems Corp. SMSC9512/9514 Fast Ethernet Adapter
Bus 001 Device 002: ID 0424:9514 Standard Microsystems Corp. SMC9514 Hub
Bus 001 Device 001: ID 1d6b:0002 Linux Foundation 2.0 root hub

DEBUG:root:02/09/2014 08:58:38 Network OK
DEBUG:root:02/09/2014 08:58:43 app.py | ValueError | GrabGPS() | NO GPS FOUND: {"class":"TPV","tag":"MID2","device":"/dev/ttyUSB0","mode":1,"time":"1995-01-17T07:58:42.620Z","ept":0.005}
DEBUG:root:02/09/2014 08:58:50 app.py | ValueError | GrabGPS() | NO GPS FOUND: {"class":"TPV","tag":"MID2","device":"/dev/ttyUSB0","mode":1,"time":"1995-01-17T07:58:49.630Z","ept":0.005}
DEBUG:root:02/09/2014 08:58:58 app.py | ValueError | GrabGPS() | NO GPS FOUND: {"class":"TPV","tag":"MID2","device":"/dev/ttyUSB0","mode":1,"time":"1995-01-17T07:58:57.630Z","ept":0.005}
DEBUG:root:02/09/2014 08:59:01 Checking network connection: Bus 001 Device 004: ID 046d:c52b Logitech, Inc. Unifying Receiver
Bus 001 Device 006: ID 12d1:14db Huawei Technologies Co., Ltd. E353/E3131
Bus 001 Device 007: ID 067b:2303 Prolific Technology, Inc. PL2303 Serial Port
Bus 001 Device 003: ID 0424:ec00 Standard Microsystems Corp. SMSC9512/9514 Fast Ethernet Adapter
Bus 001 Device 002: ID 0424:9514 Standard Microsystems Corp. SMC9514 Hub
Bus 001 Device 001: ID 1d6b:0002 Linux Foundation 2.0 root hub

DEBUG:root:02/09/2014 08:59:01 Network OK
DEBUG:root:02/09/2014 08:59:05 app.py | ValueError | GrabGPS() | NO GPS FOUND: {"class":"TPV","tag":"MID2","device":"/dev/ttyUSB0","mode":1,"time":"1995-01-17T07:59:04.630Z","ept":0.005}
DEBUG:root:02/09/2014 08:59:13 app.py | ValueError | GrabGPS() | NO GPS FOUND: {"class":"TPV","tag":"MID2","device":"/dev/ttyUSB0","mode":1,"time":"1995-01-17T07:59:12.630Z","ept":0.005}
DEBUG:root:02/09/2014 08:59:20 app.py | ValueError | GrabGPS() | NO GPS FOUND: {"class":"TPV","tag":"MID2","device":"/dev/ttyUSB0","mode":1,"time":"1995-01-17T07:59:19.620Z","ept":0.005}
INFO:cherrypy.error:[02/Sep/2014:08:59:24] ENGINE Bus STOPPING
INFO:cherrypy.error:[02/Sep/2014:08:59:24] ENGINE HTTP Server cherrypy._cpwsgi_server.CPWSGIServer(('0.0.0.0', 80)) shut down
INFO:cherrypy.error:[02/Sep/2014:08:59:24] ENGINE Stopped thread 'Autoreloader'.
INFO:cherrypy.error:[02/Sep/2014:08:59:24] ENGINE Stopped thread '_TimeoutMonitor'.
INFO:cherrypy.error:[02/Sep/2014:08:59:24] ENGINE Bus STOPPED
INFO:cherrypy.error:[02/Sep/2014:08:59:24] ENGINE Bus EXITING
INFO:cherrypy.error:[02/Sep/2014:08:59:24] ENGINE Bus EXITED
INFO:root:02/09/2014 09:09:21 Started script
INFO:cherrypy.error:[02/Sep/2014:09:09:21] ENGINE Bus STARTING
INFO:cherrypy.error:[02/Sep/2014:09:09:21] ENGINE Started monitor thread '_TimeoutMonitor'.
INFO:cherrypy.error:[02/Sep/2014:09:09:22] ENGINE Started monitor thread 'Autoreloader'.
INFO:cherrypy.error:[02/Sep/2014:09:09:22] ENGINE Serving on http://0.0.0.0
INFO:cherrypy.error:[02/Sep/2014:09:09:22] ENGINE Bus STARTED
DEBUG:root:02/09/2014 09:09:23 app.py | ValueError | GrabGPS() | NO GPS FOUND: {"class":"SKY","tag":"MID4","device":"/dev/ttyUSB0","time":"1995-01-17T08:09:22.610Z","hdop":0.00,"satellites":[{"PRN":24,"el":90,"az":175,"ss":26,"used":false}]}
DEBUG:root:02/09/2014 09:09:25 Checking network connection: Bus 001 Device 004: ID 046d:c52b Logitech, Inc. Unifying Receiver
Bus 001 Device 006: ID 12d1:14db Huawei Technologies Co., Ltd. E353/E3131
Bus 001 Device 007: ID 067b:2303 Prolific Technology, Inc. PL2303 Serial Port
Bus 001 Device 003: ID 0424:ec00 Standard Microsystems Corp. SMSC9512/9514 Fast Ethernet Adapter
Bus 001 Device 002: ID 0424:9514 Standard Microsystems Corp. SMC9514 Hub
Bus 001 Device 001: ID 1d6b:0002 Linux Foundation 2.0 root hub

DEBUG:root:02/09/2014 09:09:25 Network OK
DEBUG:root:02/09/2014 09:09:31 app.py | ValueError | GrabGPS() | NO GPS FOUND: {"class":"TPV","tag":"MID2","device":"/dev/ttyUSB0","mode":1,"time":"1995-01-17T08:09:30.610Z","ept":0.005}
DEBUG:root:02/09/2014 09:09:38 app.py | ValueError | GrabGPS() | NO GPS FOUND: {"class":"TPV","tag":"MID2","device":"/dev/ttyUSB0","mode":1,"time":"1995-01-17T08:09:37.610Z","ept":0.005}
DEBUG:root:02/09/2014 09:09:46 app.py | ValueError | GrabGPS() | NO GPS FOUND: {"class":"TPV","tag":"MID2","device":"/dev/ttyUSB0","mode":1,"time":"1995-01-17T08:09:45.610Z","ept":0.005}
DEBUG:root:02/09/2014 09:09:48 Checking network connection: Bus 001 Device 004: ID 046d:c52b Logitech, Inc. Unifying Receiver
Bus 001 Device 006: ID 12d1:14db Huawei Technologies Co., Ltd. E353/E3131
Bus 001 Device 007: ID 067b:2303 Prolific Technology, Inc. PL2303 Serial Port
Bus 001 Device 003: ID 0424:ec00 Standard Microsystems Corp. SMSC9512/9514 Fast Ethernet Adapter
Bus 001 Device 002: ID 0424:9514 Standard Microsystems Corp. SMC9514 Hub
Bus 001 Device 001: ID 1d6b:0002 Linux Foundation 2.0 root hub

DEBUG:root:02/09/2014 09:09:48 Network OK
DEBUG:root:02/09/2014 09:09:53 app.py | ValueError | GrabGPS() | NO GPS FOUND: {"class":"TPV","tag":"MID2","device":"/dev/ttyUSB0","mode":1,"time":"1995-01-17T08:09:52.610Z","ept":0.005}
DEBUG:root:02/09/2014 09:10:01 app.py | ValueError | GrabGPS() | NO GPS FOUND: {"class":"TPV","tag":"MID2","device":"/dev/ttyUSB0","mode":1,"time":"1995-01-17T08:10:00.610Z","ept":0.005}
DEBUG:root:02/09/2014 09:10:08 app.py | ValueError | GrabGPS() | NO GPS FOUND: {"class":"TPV","tag":"MID2","device":"/dev/ttyUSB0","mode":1,"time":"1995-01-17T08:10:07.610Z","ept":0.005}
DEBUG:root:02/09/2014 09:10:10 Checking network connection: Bus 001 Device 004: ID 046d:c52b Logitech, Inc. Unifying Receiver
Bus 001 Device 006: ID 12d1:14db Huawei Technologies Co., Ltd. E353/E3131
Bus 001 Device 007: ID 067b:2303 Prolific Technology, Inc. PL2303 Serial Port
Bus 001 Device 003: ID 0424:ec00 Standard Microsystems Corp. SMSC9512/9514 Fast Ethernet Adapter
Bus 001 Device 002: ID 0424:9514 Standard Microsystems Corp. SMC9514 Hub
Bus 001 Device 001: ID 1d6b:0002 Linux Foundation 2.0 root hub

DEBUG:root:02/09/2014 09:10:10 Network OK
DEBUG:root:02/09/2014 09:10:16 app.py | ValueError | GrabGPS() | NO GPS FOUND: {"class":"TPV","tag":"MID2","device":"/dev/ttyUSB0","mode":1,"time":"1995-01-17T08:10:15.610Z","ept":0.005}
DEBUG:root:02/09/2014 09:10:23 app.py | ValueError | GrabGPS() | NO GPS FOUND: {"class":"TPV","tag":"MID2","device":"/dev/ttyUSB0","mode":1,"time":"1995-01-17T08:10:22.620Z","ept":0.005}
DEBUG:root:02/09/2014 09:10:32 app.py | ValueError | GrabGPS() | NO GPS FOUND: {"class":"TPV","tag":"MID2","device":"/dev/ttyUSB0","mode":1,"time":"1995-01-17T08:10:31.520Z","ept":0.005}
DEBUG:root:02/09/2014 09:10:33 Checking network connection: Bus 001 Device 004: ID 046d:c52b Logitech, Inc. Unifying Receiver
Bus 001 Device 006: ID 12d1:14db Huawei Technologies Co., Ltd. E353/E3131
Bus 001 Device 007: ID 067b:2303 Prolific Technology, Inc. PL2303 Serial Port
Bus 001 Device 003: ID 0424:ec00 Standard Microsystems Corp. SMSC9512/9514 Fast Ethernet Adapter
Bus 001 Device 002: ID 0424:9514 Standard Microsystems Corp. SMC9514 Hub
Bus 001 Device 001: ID 1d6b:0002 Linux Foundation 2.0 root hub

DEBUG:root:02/09/2014 09:10:33 Network OK
DEBUG:root:02/09/2014 09:10:40 app.py | ValueError | GrabGPS() | NO GPS FOUND: {"class":"SKY","tag":"MID4","device":"/dev/ttyUSB0","time":"1995-01-17T08:10:39.630Z","hdop":0.00}
DEBUG:root:02/09/2014 09:10:48 app.py | ValueError | GrabGPS() | NO GPS FOUND: {"class":"TPV","tag":"MID2","device":"/dev/ttyUSB0","mode":1,"time":"1995-01-17T08:10:47.630Z","ept":0.005}
DEBUG:root:02/09/2014 09:10:55 app.py | ValueError | GrabGPS() | NO GPS FOUND: {"class":"TPV","tag":"MID2","device":"/dev/ttyUSB0","mode":1,"time":"1995-01-17T08:10:54.620Z","ept":0.005}
DEBUG:root:02/09/2014 09:10:56 Checking network connection: Bus 001 Device 004: ID 046d:c52b Logitech, Inc. Unifying Receiver
Bus 001 Device 006: ID 12d1:14db Huawei Technologies Co., Ltd. E353/E3131
Bus 001 Device 007: ID 067b:2303 Prolific Technology, Inc. PL2303 Serial Port
Bus 001 Device 003: ID 0424:ec00 Standard Microsystems Corp. SMSC9512/9514 Fast Ethernet Adapter
Bus 001 Device 002: ID 0424:9514 Standard Microsystems Corp. SMC9514 Hub
Bus 001 Device 001: ID 1d6b:0002 Linux Foundation 2.0 root hub

DEBUG:root:02/09/2014 09:10:56 Network OK
DEBUG:root:02/09/2014 09:11:03 app.py | ValueError | GrabGPS() | NO GPS FOUND: {"class":"TPV","tag":"MID2","device":"/dev/ttyUSB0","mode":1,"time":"1995-01-17T08:11:02.630Z","ept":0.005}
DEBUG:root:02/09/2014 09:11:10 app.py | ValueError | GrabGPS() | NO GPS FOUND: {"class":"TPV","tag":"MID2","device":"/dev/ttyUSB0","mode":1,"time":"1995-01-17T08:11:09.610Z","ept":0.005}
DEBUG:root:02/09/2014 09:11:18 app.py | ValueError | GrabGPS() | NO GPS FOUND: {"class":"TPV","tag":"MID2","device":"/dev/ttyUSB0","mode":1,"time":"1995-01-17T08:11:17.620Z","ept":0.005}
DEBUG:root:02/09/2014 09:11:18 Checking network connection: Bus 001 Device 004: ID 046d:c52b Logitech, Inc. Unifying Receiver
Bus 001 Device 006: ID 12d1:14db Huawei Technologies Co., Ltd. E353/E3131
Bus 001 Device 007: ID 067b:2303 Prolific Technology, Inc. PL2303 Serial Port
Bus 001 Device 003: ID 0424:ec00 Standard Microsystems Corp. SMSC9512/9514 Fast Ethernet Adapter
Bus 001 Device 002: ID 0424:9514 Standard Microsystems Corp. SMC9514 Hub
Bus 001 Device 001: ID 1d6b:0002 Linux Foundation 2.0 root hub

DEBUG:root:02/09/2014 09:11:18 Network OK
DEBUG:root:02/09/2014 09:11:25 app.py | ValueError | GrabGPS() | NO GPS FOUND: {"class":"TPV","tag":"MID2","device":"/dev/ttyUSB0","mode":1,"time":"1995-01-17T08:11:24.620Z","ept":0.005}
DEBUG:root:02/09/2014 09:11:33 app.py | ValueError | GrabGPS() | NO GPS FOUND: {"class":"TPV","tag":"MID2","device":"/dev/ttyUSB0","mode":1,"time":"1995-01-17T08:11:32.620Z","ept":0.005}
DEBUG:root:02/09/2014 09:11:40 app.py | ValueError | GrabGPS() | NO GPS FOUND: {"class":"TPV","tag":"MID2","device":"/dev/ttyUSB0","mode":1,"time":"1995-01-17T08:11:39.620Z","ept":0.005}
DEBUG:root:02/09/2014 09:11:41 Checking network connection: Bus 001 Device 004: ID 046d:c52b Logitech, Inc. Unifying Receiver
Bus 001 Device 006: ID 12d1:14db Huawei Technologies Co., Ltd. E353/E3131
Bus 001 Device 007: ID 067b:2303 Prolific Technology, Inc. PL2303 Serial Port
Bus 001 Device 003: ID 0424:ec00 Standard Microsystems Corp. SMSC9512/9514 Fast Ethernet Adapter
Bus 001 Device 002: ID 0424:9514 Standard Microsystems Corp. SMC9514 Hub
Bus 001 Device 001: ID 1d6b:0002 Linux Foundation 2.0 root hub

DEBUG:root:02/09/2014 09:11:41 Network OK
DEBUG:root:02/09/2014 09:11:48 app.py | ValueError | GrabGPS() | NO GPS FOUND: {"class":"TPV","tag":"MID2","device":"/dev/ttyUSB0","mode":1,"time":"1995-01-17T08:11:47.620Z","ept":0.005}
DEBUG:root:02/09/2014 09:11:55 app.py | ValueError | GrabGPS() | NO GPS FOUND: {"class":"TPV","tag":"MID2","device":"/dev/ttyUSB0","mode":1,"time":"1995-01-17T08:11:54.620Z","ept":0.005}
DEBUG:root:02/09/2014 09:12:03 app.py | ValueError | GrabGPS() | NO GPS FOUND: {"class":"TPV","tag":"MID2","device":"/dev/ttyUSB0","mode":1,"time":"1995-01-17T08:12:02.620Z","ept":0.005}
DEBUG:root:02/09/2014 09:12:04 Checking network connection: Bus 001 Device 004: ID 046d:c52b Logitech, Inc. Unifying Receiver
Bus 001 Device 006: ID 12d1:14db Huawei Technologies Co., Ltd. E353/E3131
Bus 001 Device 007: ID 067b:2303 Prolific Technology, Inc. PL2303 Serial Port
Bus 001 Device 003: ID 0424:ec00 Standard Microsystems Corp. SMSC9512/9514 Fast Ethernet Adapter
Bus 001 Device 002: ID 0424:9514 Standard Microsystems Corp. SMC9514 Hub
Bus 001 Device 001: ID 1d6b:0002 Linux Foundation 2.0 root hub

DEBUG:root:02/09/2014 09:12:04 Network OK
DEBUG:root:02/09/2014 09:12:10 app.py | ValueError | GrabGPS() | NO GPS FOUND: {"class":"TPV","tag":"MID2","device":"/dev/ttyUSB0","mode":1,"time":"1995-01-17T08:12:09.620Z","ept":0.005}
DEBUG:root:02/09/2014 09:12:18 app.py | ValueError | GrabGPS() | NO GPS FOUND: {"class":"TPV","tag":"MID2","device":"/dev/ttyUSB0","mode":1,"time":"1995-01-17T08:12:17.610Z","ept":0.005}
DEBUG:root:02/09/2014 09:12:25 app.py | ValueError | GrabGPS() | NO GPS FOUND: {"class":"TPV","tag":"MID2","device":"/dev/ttyUSB0","mode":1,"time":"1995-01-17T08:12:24.620Z","ept":0.005}
DEBUG:root:02/09/2014 09:12:26 Checking network connection: Bus 001 Device 004: ID 046d:c52b Logitech, Inc. Unifying Receiver
Bus 001 Device 006: ID 12d1:14db Huawei Technologies Co., Ltd. E353/E3131
Bus 001 Device 007: ID 067b:2303 Prolific Technology, Inc. PL2303 Serial Port
Bus 001 Device 003: ID 0424:ec00 Standard Microsystems Corp. SMSC9512/9514 Fast Ethernet Adapter
Bus 001 Device 002: ID 0424:9514 Standard Microsystems Corp. SMC9514 Hub
Bus 001 Device 001: ID 1d6b:0002 Linux Foundation 2.0 root hub

DEBUG:root:02/09/2014 09:12:26 Network OK
DEBUG:root:02/09/2014 09:12:33 app.py | ValueError | GrabGPS() | NO GPS FOUND: {"class":"TPV","tag":"MID2","device":"/dev/ttyUSB0","mode":1,"time":"1995-01-17T08:12:32.620Z","ept":0.005}
