DEBUG:root:01:09:58Started script
INFO:root:Recieved from GPS dongle:
NO GPS FOUND: {"class":"DEVICE","path":"/dev/ttyUSB0","activated":601.494102}
INFO:root:Recieved from GPS dongle:
NO GPS FOUND: {"class":"SKY","tag":"MID4","device":"/dev/ttyUSB0","time":"1995-01-13T14:45:14.610Z","satellites":[{"PRN":22,"el":52,"az":121,"ss":4,"used":true}]}
INFO:root:Recieved from GPS dongle:
NO GPS FOUND: {"class":"TPV","tag":"MID2","device":"/dev/ttyUSB0","mode":1,"time":"1995-01-13T14:45:15.610Z","ept":0.005}
INFO:root:Recieved from GPS dongle:
NO GPS FOUND: {"class":"SKY","tag":"MID4","device":"/dev/ttyUSB0","time":"1995-01-13T14:45:17.610Z","hdop":0.00,"satellites":[{"PRN":22,"el":52,"az":121,"ss":41,"used":false}]}
INFO:root:Recieved from GPS dongle:
NO GPS FOUND: {"class":"TPV","tag":"MID2","device":"/dev/ttyUSB0","mode":1,"time":"1995-01-13T14:45:19.610Z","ept":0.005}
INFO:root:Recieved from GPS dongle:
NO GPS FOUND: {"class":"TPV","tag":"MID2","device":"/dev/ttyUSB0","mode":1,"time":"1995-01-13T14:45:20.610Z","ept":0.005}
INFO:root:Recieved from GPS dongle:
{'lat':0.1,'lon':0.4,'speed':0.6,'alt':55}
INFO:root:Recieved from GPS dongle:
{'lat':0.1,'lon':0.4,'speed':0.6,'alt':55}
INFO:root:Recieved from GPS dongle:
{'lat':0.1,'lon':0.4,'speed':0.6,'alt':55}
INFO:root:Recieved from GPS dongle:
{'lat':0.1,'lon':0.4,'speed':0.6,'alt':55}
INFO:root:Recieved from GPS dongle:
{'lat':0.1,'lon':0.4,'speed':0.6,'alt':55}
INFO:root:Recieved from GPS dongle:
{'lat':0.1,'lon':0.4,'speed':0.6,'alt':55}
INFO:root:Recieved from GPS dongle:
{'lat':0.1,'lon':0.4,'speed':0.6,'alt':55}
INFO:root:Recieved from GPS dongle:
{'lat':0.1,'lon':0.4,'speed':0.6,'alt':55}
INFO:root:Recieved from GPS dongle:
{'lat':0.1,'lon':0.4,'speed':0.6,'alt':55}
INFO:root:Recieved from GPS dongle:
{'lat':0.1,'lon':0.4,'speed':0.6,'alt':55}
INFO:root:Recieved from GPS dongle:
{'lat':0.1,'lon':0.4,'speed':0.6,'alt':55}
INFO:root:Recieved from GPS dongle:
{'lat':0.1,'lon':0.4,'speed':0.6,'alt':55}
INFO:root:Recieved from GPS dongle:
{'lat':0.1,'lon':0.4,'speed':0.6,'alt':55}
INFO:root:Recieved from GPS dongle:
{'lat':0.1,'lon':0.4,'speed':0.6,'alt':55}
INFO:root:Recieved from GPS dongle:
{'lat':0.1,'lon':0.4,'speed':0.6,'alt':55}
INFO:root:Recieved from GPS dongle:
{'lat':0.1,'lon':0.4,'speed':0.6,'alt':55}
INFO:root:Recieved from GPS dongle:
{'lat':0.1,'lon':0.4,'speed':0.6,'alt':55}
INFO:root:Recieved from GPS dongle:
{'lat':0.1,'lon':0.4,'speed':0.6,'alt':55}
INFO:root:Recieved from GPS dongle:
{'lat':0.1,'lon':0.4,'speed':0.6,'alt':55}
INFO:root:Recieved from GPS dongle:
{'lat':0.1,'lon':0.4,'speed':0.6,'alt':55}
INFO:root:Recieved from GPS dongle:
{'lat':0.1,'lon':0.4,'speed':0.6,'alt':55}
INFO:root:Recieved from GPS dongle:
{'lat':0.1,'lon':0.4,'speed':0.6,'alt':55}
INFO:root:Recieved from GPS dongle:
{'lat':0.1,'lon':0.4,'speed':0.6,'alt':55}
INFO:root:Recieved from GPS dongle:
{'lat':0.1,'lon':0.4,'speed':0.6,'alt':55}
INFO:root:Recieved from GPS dongle:
{'lat':0.1,'lon':0.4,'speed':0.6,'alt':55}
INFO:root:Recieved from GPS dongle:
{'lat':0.1,'lon':0.4,'speed':0.6,'alt':55}
INFO:root:Recieved from GPS dongle:
{'lat':0.1,'lon':0.4,'speed':0.6,'alt':55}
INFO:root:Recieved from GPS dongle:
{'lat':0.1,'lon':0.4,'speed':0.6,'alt':55}
INFO:root:Recieved from GPS dongle:
{'lat':0.1,'lon':0.4,'speed':0.6,'alt':55}
INFO:root:Recieved from GPS dongle:
{'lat':0.1,'lon':0.4,'speed':0.6,'alt':55}
INFO:root:Recieved from GPS dongle:
{'lat':0.1,'lon':0.4,'speed':0.6,'alt':55}
INFO:root:Recieved from GPS dongle:
NO GPS FOUND: {"class":"TPV","tag":"MID2","device":"/dev/ttyUSB0","mode":1,"time":"1995-01-13T14:46:08.600Z","ept":0.005}
INFO:root:Recieved from GPS dongle:
NO GPS FOUND: {"class":"TPV","tag":"MID2","device":"/dev/ttyUSB0","mode":1,"time":"1995-01-13T14:46:10.600Z","ept":0.005}
INFO:root:Recieved from GPS dongle:
NO GPS FOUND: {"class":"TPV","tag":"MID2","device":"/dev/ttyUSB0","mode":1,"time":"1995-01-13T14:46:11.600Z","ept":0.005}
INFO:root:Recieved from GPS dongle:
NO GPS FOUND: {"class":"TPV","tag":"MID2","device":"/dev/ttyUSB0","mode":1,"time":"1995-01-13T14:46:13.600Z","ept":0.005}
INFO:root:Recieved from GPS dongle:
NO GPS FOUND: {"class":"TPV","tag":"MID2","device":"/dev/ttyUSB0","mode":1,"time":"1995-01-13T14:46:14.600Z","ept":0.005}
DEBUG:root:15:51:01Started script
INFO:root:Recieved from GPS dongle:
NO GPS FOUND: {"class":"SKY","tag":"MID4","device":"/dev/ttyUSB0","time":"1995-01-13T14:51:02.470Z","hdop":0.00,"satellites":[{"PRN":22,"el":53,"az":120,"ss":37,"used":false},{"PRN":16,"el":35,"az":180,"ss":30,"used":false},{"PRN":18,"el":38,"az":63,"ss":23,"used":false},{"PRN":27,"el":81,"az":111,"ss":23,"used":false},{"PRN":11,"el":20,"az":259,"ss":24,"used":false},{"PRN":8,"el":20,"az":283,"ss":22,"used":false}]}
INFO:root:Recieved from GPS dongle:
NO GPS FOUND: {"class":"TPV","tag":"MID2","device":"/dev/ttyUSB0","mode":1,"time":"1995-01-13T14:51:04.470Z","ept":0.005}
INFO:root:Recieved from GPS dongle:
NO GPS FOUND: {"class":"TPV","tag":"MID2","device":"/dev/ttyUSB0","mode":1,"time":"1995-01-13T14:51:05.470Z","ept":0.005}
INFO:root:Recieved from GPS dongle:
NO GPS FOUND: {"class":"TPV","tag":"MID2","device":"/dev/ttyUSB0","mode":1,"time":"1995-01-13T14:51:07.470Z","ept":0.005}
INFO:root:Recieved from GPS dongle:
NO GPS FOUND: {"class":"TPV","tag":"MID2","device":"/dev/ttyUSB0","mode":1,"time":"1995-01-13T14:51:08.470Z","ept":0.005}
INFO:root:Recieved from GPS dongle:
NO GPS FOUND: {"class":"TPV","tag":"MID2","device":"/dev/ttyUSB0","mode":1,"time":"1995-01-13T14:51:10.470Z","ept":0.005}
INFO:root:Recieved from GPS dongle:
NO GPS FOUND: {"class":"TPV","tag":"MID2","device":"/dev/ttyUSB0","mode":1,"time":"1995-01-13T14:51:11.470Z","ept":0.005}
INFO:root:Recieved from GPS dongle:
NO GPS FOUND: {"class":"TPV","tag":"MID2","device":"/dev/ttyUSB0","mode":1,"time":"1995-01-13T14:51:13.470Z","ept":0.005}
INFO:root:Recieved from GPS dongle:
NO GPS FOUND: {"class":"TPV","tag":"MID2","device":"/dev/ttyUSB0","mode":1,"time":"1995-01-13T14:51:14.470Z","ept":0.005}
INFO:root:Recieved from GPS dongle:
NO GPS FOUND: {"class":"TPV","tag":"MID2","device":"/dev/ttyUSB0","mode":1,"time":"1995-01-13T14:51:16.470Z","ept":0.005}
INFO:root:Recieved from GPS dongle:
NO GPS FOUND: {"class":"TPV","tag":"MID2","device":"/dev/ttyUSB0","mode":1,"time":"1995-01-13T14:51:17.470Z","ept":0.005}
INFO:root:Recieved from GPS dongle:
NO GPS FOUND: {"class":"SKY","tag":"MID4","device":"/dev/ttyUSB0","time":"1995-01-13T14:51:19.470Z","hdop":0.00,"satellites":[{"PRN":22,"el":53,"az":120,"ss":37,"used":false},{"PRN":16,"el":35,"az":180,"ss":29,"used":false},{"PRN":18,"el":38,"az":63,"ss":23,"used":false},{"PRN":27,"el":81,"az":111,"ss":21,"used":false},{"PRN":11,"el":20,"az":259,"ss":22,"used":false},{"PRN":8,"el":20,"az":283,"ss":18,"used":false},{"PRN":21,"el":20,"az":66,"ss":14,"used":false},{"PRN":7,"el":15,"az":283,"ss":12,"used":false},{"PRN":127,"el":12,"az":118,"ss":17,"used":false}]}
INFO:root:Recieved from GPS dongle:
NO GPS FOUND: {"class":"TPV","tag":"MID2","device":"/dev/ttyUSB0","mode":1,"time":"1995-01-13T14:51:21.470Z","ept":0.005}
DEBUG:root:15:51:27Started script
INFO:root:Recieved from GPS dongle:
NO GPS FOUND: {"class":"SKY","tag":"MID4","device":"/dev/ttyUSB0","time":"1995-01-13T14:51:28.470Z","hdop":0.00,"satellites":[{"PRN":22,"el":53,"az":117,"ss":36,"used":false},{"PRN":16,"el":34,"az":180,"ss":30,"used":false},{"PRN":18,"el":37,"az":61,"ss":22,"used":false},{"PRN":27,"el":80,"az":114,"ss":21,"used":false},{"PRN":11,"el":21,"az":259,"ss":24,"used":false},{"PRN":21,"el":18,"az":66,"ss":18,"used":false},{"PRN":127,"el":12,"az":118,"ss":29,"used":false}]}
INFO:root:Recieved from GPS dongle:
NO GPS FOUND: {"class":"TPV","tag":"MID2","device":"/dev/ttyUSB0","mode":1,"time":"1995-01-13T14:51:30.470Z","ept":0.005}
INFO:root:Recieved from GPS dongle:
NO GPS FOUND: {"class":"TPV","tag":"MID2","device":"/dev/ttyUSB0","mode":1,"time":"1995-01-13T14:51:31.470Z","ept":0.005}
INFO:root:Recieved from GPS dongle:
NO GPS FOUND: {"class":"TPV","tag":"MID2","device":"/dev/ttyUSB0","mode":1,"time":"1995-01-13T14:51:33.470Z","ept":0.005}
INFO:root:Recieved from GPS dongle:
NO GPS FOUND: {"class":"TPV","tag":"MID2","device":"/dev/ttyUSB0","mode":1,"time":"1995-01-13T14:51:34.470Z","ept":0.005}
INFO:root:Recieved from GPS dongle:
NO GPS FOUND: {"class":"TPV","tag":"MID2","device":"/dev/ttyUSB0","mode":1,"time":"1995-01-13T14:51:36.470Z","ept":0.005}
INFO:root:Recieved from GPS dongle:
NO GPS FOUND: {"class":"TPV","tag":"MID2","device":"/dev/ttyUSB0","mode":1,"time":"1995-01-13T14:51:37.470Z","ept":0.005}
INFO:root:Recieved from GPS dongle:
NO GPS FOUND: {"class":"TPV","tag":"MID2","device":"/dev/ttyUSB0","mode":1,"time":"1995-01-13T14:51:39.470Z","ept":0.005}
INFO:root:Recieved from GPS dongle:
NO GPS FOUND: {"class":"TPV","tag":"MID2","device":"/dev/ttyUSB0","mode":1,"time":"1995-01-13T14:51:40.470Z","ept":0.005}
INFO:root:Recieved from GPS dongle:
NO GPS FOUND: {"class":"TPV","tag":"MID2","device":"/dev/ttyUSB0","mode":1,"time":"1995-01-13T14:51:42.470Z","ept":0.005}
INFO:root:Recieved from GPS dongle:
NO GPS FOUND: {"class":"TPV","tag":"MID2","device":"/dev/ttyUSB0","mode":1,"time":"1995-01-13T14:51:43.470Z","ept":0.005}
INFO:root:Recieved from GPS dongle:
NO GPS FOUND: {"class":"TPV","tag":"MID2","device":"/dev/ttyUSB0","mode":1,"time":"1995-01-13T14:51:45.470Z","ept":0.005}
INFO:root:Recieved from GPS dongle:
NO GPS FOUND: {"class":"TPV","tag":"MID2","device":"/dev/ttyUSB0","mode":1,"time":"1995-01-13T14:51:46.470Z","ept":0.005}
INFO:root:Recieved from GPS dongle:
NO GPS FOUND: {"class":"TPV","tag":"MID2","device":"/dev/ttyUSB0","mode":1,"time":"1995-01-13T14:51:48.470Z","ept":0.005}
INFO:root:Recieved from GPS dongle:
NO GPS FOUND: {"class":"TPV","tag":"MID2","device":"/dev/ttyUSB0","mode":1,"time":"1995-01-13T14:51:49.470Z","ept":0.005}
INFO:root:Recieved from GPS dongle:
NO GPS FOUND: {"class":"TPV","tag":"MID2","device":"/dev/ttyUSB0","mode":1,"time":"1995-01-13T14:51:51.470Z","ept":0.005}
INFO:root:Recieved from GPS dongle:
NO GPS FOUND: {"class":"TPV","tag":"MID2","device":"/dev/ttyUSB0","mode":1,"time":"1995-01-13T14:51:52.470Z","ept":0.005}
INFO:root:Recieved from GPS dongle:
NO GPS FOUND: {"class":"TPV","tag":"MID2","device":"/dev/ttyUSB0","mode":1,"time":"1995-01-13T14:51:54.470Z","ept":0.005}
INFO:root:Recieved from GPS dongle:
NO GPS FOUND: {"class":"TPV","tag":"MID2","device":"/dev/ttyUSB0","mode":1,"time":"1995-01-13T14:51:55.470Z","ept":0.005}
INFO:root:Recieved from GPS dongle:
NO GPS FOUND: {"class":"TPV","tag":"MID2","device":"/dev/ttyUSB0","mode":1,"time":"1995-01-13T14:51:57.470Z","ept":0.005}
INFO:root:Recieved from GPS dongle:
NO GPS FOUND: {"class":"TPV","tag":"MID2","device":"/dev/ttyUSB0","mode":1,"time":"1995-01-13T14:51:58.470Z","ept":0.005}
INFO:root:Recieved from GPS dongle:
NO GPS FOUND: {"class":"TPV","tag":"MID2","device":"/dev/ttyUSB0","mode":1,"time":"1995-01-13T14:52:00.470Z","ept":0.005}
INFO:root:Recieved from GPS dongle:
NO GPS FOUND: {"class":"TPV","tag":"MID2","device":"/dev/ttyUSB0","mode":1,"time":"1995-01-13T14:52:01.470Z","ept":0.005}
INFO:root:Recieved from GPS dongle:
{'lat':0.1,'lon':0.4,'speed':0.6,'alt':55}
INFO:root:Recieved from GPS dongle:
{'lat':0.1,'lon':0.4,'speed':0.6,'alt':55}
INFO:root:Recieved from GPS dongle:
{'lat':0.1,'lon':0.4,'speed':0.6,'alt':55}
INFO:root:Recieved from GPS dongle:
{'lat':0.1,'lon':0.4,'speed':0.6,'alt':55}
INFO:root:Recieved from GPS dongle:
{'lat':0.1,'lon':0.4,'speed':0.6,'alt':55}
INFO:root:Recieved from GPS dongle:
{'lat':0.1,'lon':0.4,'speed':0.6,'alt':55}
INFO:root:Recieved from GPS dongle:
{'lat':0.1,'lon':0.4,'speed':0.6,'alt':55}
INFO:root:Recieved from GPS dongle:
{'lat':0.1,'lon':0.4,'speed':0.6,'alt':55}
INFO:root:Recieved from GPS dongle:
{'lat':0.1,'lon':0.4,'speed':0.6,'alt':55}
INFO:root:Recieved from GPS dongle:
{'lat':0.1,'lon':0.4,'speed':0.6,'alt':55}
INFO:root:Recieved from GPS dongle:
{'lat':0.1,'lon':0.4,'speed':0.6,'alt':55}
INFO:root:Recieved from GPS dongle:
{'lat':0.1,'lon':0.4,'speed':0.6,'alt':55}
INFO:root:Recieved from GPS dongle:
{'lat':0.1,'lon':0.4,'speed':0.6,'alt':55}
INFO:root:Recieved from GPS dongle:
{'lat':0.1,'lon':0.4,'speed':0.6,'alt':55}
INFO:root:Recieved from GPS dongle:
{'lat':0.1,'lon':0.4,'speed':0.6,'alt':55}
INFO:root:Recieved from GPS dongle:
{'lat':0.1,'lon':0.4,'speed':0.6,'alt':55}
INFO:root:Recieved from GPS dongle:
{'lat':0.1,'lon':0.4,'speed':0.6,'alt':55}
INFO:root:Recieved from GPS dongle:
{'lat':0.1,'lon':0.4,'speed':0.6,'alt':55}
INFO:root:Recieved from GPS dongle:
{'lat':0.1,'lon':0.4,'speed':0.6,'alt':55}
INFO:root:Recieved from GPS dongle:
{'lat':0.1,'lon':0.4,'speed':0.6,'alt':55}
INFO:root:Recieved from GPS dongle:
{'lat':0.1,'lon':0.4,'speed':0.6,'alt':55}
INFO:root:Recieved from GPS dongle:
{'lat':0.1,'lon':0.4,'speed':0.6,'alt':55}
INFO:root:Recieved from GPS dongle:
{'lat':0.1,'lon':0.4,'speed':0.6,'alt':55}
INFO:root:Recieved from GPS dongle:
{'lat':0.1,'lon':0.4,'speed':0.6,'alt':55}
INFO:root:Recieved from GPS dongle:
{'lat':0.1,'lon':0.4,'speed':0.6,'alt':55}
INFO:root:Recieved from GPS dongle:
{'lat':0.1,'lon':0.4,'speed':0.6,'alt':55}
INFO:root:Recieved from GPS dongle:
{'lat':0.1,'lon':0.4,'speed':0.6,'alt':55}
INFO:root:Recieved from GPS dongle:
{'lat':0.1,'lon':0.4,'speed':0.6,'alt':55}
INFO:root:Recieved from GPS dongle:
{'lat':0.1,'lon':0.4,'speed':0.6,'alt':55}
INFO:root:Recieved from GPS dongle:
{'lat':0.1,'lon':0.4,'speed':0.6,'alt':55}
DEBUG:root:15:52:52Started script
INFO:root:Recieved from GPS dongle:
{'lat':0.1,'lon':0.4,'speed':0.6,'alt':55}
INFO:root:Recieved from GPS dongle:
{'lat':0.1,'lon':0.4,'speed':0.6,'alt':55}
INFO:root:Recieved from GPS dongle:
{'lat':0.1,'lon':0.4,'speed':0.6,'alt':55}
INFO:root:Recieved from GPS dongle:
{'lat':0.1,'lon':0.4,'speed':0.6,'alt':55}
INFO:root:Recieved from GPS dongle:
{'lat':0.1,'lon':0.4,'speed':0.6,'alt':55}
INFO:root:Recieved from GPS dongle:
{'lat':0.1,'lon':0.4,'speed':0.6,'alt':55}
INFO:root:Recieved from GPS dongle:
{'lat':0.1,'lon':0.4,'speed':0.6,'alt':55}
INFO:root:Recieved from GPS dongle:
{'lat':0.1,'lon':0.4,'speed':0.6,'alt':55}
INFO:root:Recieved from GPS dongle:
{'lat':0.1,'lon':0.4,'speed':0.6,'alt':55}
INFO:root:Recieved from GPS dongle:
{'lat':0.1,'lon':0.4,'speed':0.6,'alt':55}
INFO:root:Recieved from GPS dongle:
{'lat':0.1,'lon':0.4,'speed':0.6,'alt':55}
INFO:root:Recieved from GPS dongle:
{'lat':0.1,'lon':0.4,'speed':0.6,'alt':55}
INFO:root:Recieved from GPS dongle:
{'lat':0.1,'lon':0.4,'speed':0.6,'alt':55}
INFO:root:Recieved from GPS dongle:
{'lat':0.1,'lon':0.4,'speed':0.6,'alt':55}
INFO:root:Recieved from GPS dongle:
{'lat':0.1,'lon':0.4,'speed':0.6,'alt':55}
INFO:root:Recieved from GPS dongle:
{'lat':0.1,'lon':0.4,'speed':0.6,'alt':55}
INFO:root:Recieved from GPS dongle:
{'lat':0.1,'lon':0.4,'speed':0.6,'alt':55}
INFO:root:Recieved from GPS dongle:
{'lat':0.1,'lon':0.4,'speed':0.6,'alt':55}
INFO:root:Recieved from GPS dongle:
{'lat':0.1,'lon':0.4,'speed':0.6,'alt':55}
INFO:root:Recieved from GPS dongle:
{'lat':0.1,'lon':0.4,'speed':0.6,'alt':55}
INFO:root:Recieved from GPS dongle:
NO GPS FOUND: {"class":"SKY","tag":"MID4","device":"/dev/ttyUSB0","time":"1995-01-13T14:53:23.470Z","xdop":3.23,"ydop":2.11,"vdop":3.36,"tdop":3.47,"hdop":2.20,"gdop":6.19,"pdop":5.12,"satellites":[{"PRN":22,"el":53,"az":117,"ss":36,"used":true},{"PRN":16,"el":34,"az":180,"ss":28,"used":true},{"PRN":18,"el":37,"az":61,"ss":24,"used":true},{"PRN":27,"el":80,"az":114,"ss":22,"used":false},{"PRN":11,"el":21,"az":259,"ss":22,"used":true},{"PRN":7,"el":14,"az":282,"ss":18,"used":false},{"PRN":8,"el":19,"az":282,"ss":18,"used":false},{"PRN":21,"el":18,"az":67,"ss":20,"used":false}]}
INFO:root:Recieved from GPS dongle:
{'lat':0.1,'lon':0.4,'speed':0.6,'alt':55}
INFO:root:Recieved from GPS dongle:
{'lat':0.1,'lon':0.4,'speed':0.6,'alt':55}
INFO:root:Recieved from GPS dongle:
{'lat':0.1,'lon':0.4,'speed':0.6,'alt':55}
INFO:root:Recieved from GPS dongle:
{'lat':0.1,'lon':0.4,'speed':0.6,'alt':55}
INFO:root:Recieved from GPS dongle:
{'lat':0.1,'lon':0.4,'speed':0.6,'alt':55}
INFO:root:Recieved from GPS dongle:
{'lat':0.1,'lon':0.4,'speed':0.6,'alt':55}
INFO:root:Recieved from GPS dongle:
{'lat':0.1,'lon':0.4,'speed':0.6,'alt':55}
INFO:root:Recieved from GPS dongle:
{'lat':0.1,'lon':0.4,'speed':0.6,'alt':55}
INFO:root:Recieved from GPS dongle:
{'lat':0.1,'lon':0.4,'speed':0.6,'alt':55}
INFO:root:Recieved from GPS dongle:
{'lat':0.1,'lon':0.4,'speed':0.6,'alt':55}
INFO:root:Recieved from GPS dongle:
{'lat':0.1,'lon':0.4,'speed':0.6,'alt':55}
INFO:root:Recieved from GPS dongle:
{'lat':0.1,'lon':0.4,'speed':0.6,'alt':55}
INFO:root:Recieved from GPS dongle:
{'lat':0.1,'lon':0.4,'speed':0.6,'alt':55}
INFO:root:Recieved from GPS dongle:
{'lat':0.1,'lon':0.4,'speed':0.6,'alt':55}
INFO:root:Recieved from GPS dongle:
{'lat':0.1,'lon':0.4,'speed':0.6,'alt':55}
INFO:root:Recieved from GPS dongle:
{'lat':0.1,'lon':0.4,'speed':0.6,'alt':55}
INFO:root:Recieved from GPS dongle:
{'lat':0.1,'lon':0.4,'speed':0.6,'alt':55}
INFO:root:Recieved from GPS dongle:
{'lat':0.1,'lon':0.4,'speed':0.6,'alt':55}
INFO:root:Recieved from GPS dongle:
{'lat':0.1,'lon':0.4,'speed':0.6,'alt':55}
INFO:root:Recieved from GPS dongle:
{'lat':0.1,'lon':0.4,'speed':0.6,'alt':55}
INFO:root:Recieved from GPS dongle:
{'lat':0.1,'lon':0.4,'speed':0.6,'alt':55}
INFO:root:Recieved from GPS dongle:
{'lat':0.1,'lon':0.4,'speed':0.6,'alt':55}
INFO:root:Recieved from GPS dongle:
{'lat':0.1,'lon':0.4,'speed':0.6,'alt':55}
INFO:root:Recieved from GPS dongle:
{'lat':0.1,'lon':0.4,'speed':0.6,'alt':55}
INFO:root:Recieved from GPS dongle:
{'lat':0.1,'lon':0.4,'speed':0.6,'alt':55}
INFO:root:Recieved from GPS dongle:
{'lat':0.1,'lon':0.4,'speed':0.6,'alt':55}
INFO:root:Recieved from GPS dongle:
{'lat':0.1,'lon':0.4,'speed':0.6,'alt':55}
INFO:root:Recieved from GPS dongle:
{'lat':0.1,'lon':0.4,'speed':0.6,'alt':55}
INFO:root:Recieved from GPS dongle:
{'lat':0.1,'lon':0.4,'speed':0.6,'alt':55}
INFO:root:01/01/1970 H:49:22 Started script
DEBUG:root:01/01/1970 H:49:23 app.py | ValueError | GrabGPS() | NO GPS FOUND: {"class":"SKY","tag":"MID4","device":"/dev/ttyUSB0","time":"1989-07-02T00:04:41.040Z"}
WARNING:root:01/01/1970 H:49:24 USB HAS BEEN RESET
DEBUG:root:01/01/1970 H:49:24 app.py | ValueError | GrabGPS() | NO GPS FOUND: {"class":"TPV","tag":"MID2","device":"/dev/ttyUSB0","mode":1,"time":"1989-07-02T00:04:42.040Z","ept":0.005}
DEBUG:root:01/01/1970 H:49:26 app.py | ValueError | GrabGPS() | NO GPS FOUND: {"class":"SKY","tag":"MID4","device":"/dev/ttyUSB0","time":"1989-07-02T00:04:44.040Z","hdop":0.00}
DEBUG:root:01/01/1970 H:49:28 app.py | ValueError | GrabGPS() | NO GPS FOUND: {"class":"TPV","tag":"MID2","device":"/dev/ttyUSB0","mode":1,"time":"1989-07-02T00:04:46.040Z","ept":0.005}
DEBUG:root:01/01/1970 H:49:29 app.py | ValueError | GrabGPS() | NO GPS FOUND: {"class":"TPV","tag":"MID2","device":"/dev/ttyUSB0","mode":1,"time":"1989-07-02T00:04:47.040Z","ept":0.005}
DEBUG:root:01/01/1970 H:49:31 app.py | ValueError | GrabGPS() | NO GPS FOUND: {"class":"TPV","tag":"MID2","device":"/dev/ttyUSB0","mode":1,"time":"1989-07-02T00:04:49.040Z","ept":0.005}
DEBUG:root:01/01/1970 H:49:32 app.py | ValueError | GrabGPS() | NO GPS FOUND: {"class":"TPV","tag":"MID2","device":"/dev/ttyUSB0","mode":1,"time":"1989-07-02T00:04:50.040Z","ept":0.005}
DEBUG:root:01/01/1970 H:49:34 app.py | ValueError | GrabGPS() | NO GPS FOUND: {"class":"TPV","tag":"MID2","device":"/dev/ttyUSB0","mode":1,"time":"1989-07-02T00:04:52.040Z","ept":0.005}
DEBUG:root:01/01/1970 H:49:35 app.py | ValueError | GrabGPS() | NO GPS FOUND: {"class":"TPV","tag":"MID2","device":"/dev/ttyUSB0","mode":1,"time":"1989-07-02T00:04:53.040Z","ept":0.005}
DEBUG:root:01/01/1970 H:49:37 app.py | ValueError | GrabGPS() | NO GPS FOUND: {"class":"TPV","tag":"MID2","device":"/dev/ttyUSB0","mode":1,"time":"1989-07-02T00:04:55.040Z","ept":0.005}
DEBUG:root:01/01/1970 H:49:38 app.py | ValueError | GrabGPS() | NO GPS FOUND: {"class":"TPV","tag":"MID2","device":"/dev/ttyUSB0","mode":1,"time":"1989-07-02T00:04:56.040Z","ept":0.005}
DEBUG:root:01/01/1970 H:49:40 app.py | ValueError | GrabGPS() | NO GPS FOUND: {"class":"TPV","tag":"MID2","device":"/dev/ttyUSB0","mode":1,"time":"1989-07-02T00:04:58.040Z","ept":0.005}
DEBUG:root:01/01/1970 H:49:41 app.py | ValueError | GrabGPS() | NO GPS FOUND: {"class":"TPV","tag":"MID2","device":"/dev/ttyUSB0","mode":1,"time":"1989-07-02T00:04:59.040Z","ept":0.005}
DEBUG:root:01/01/1970 H:49:43 app.py | ValueError | GrabGPS() | NO GPS FOUND: {"class":"TPV","tag":"MID2","device":"/dev/ttyUSB0","mode":1,"time":"1989-07-02T00:05:01.040Z","ept":0.005}
DEBUG:root:01/01/1970 H:49:44 app.py | ValueError | GrabGPS() | NO GPS FOUND: {"class":"TPV","tag":"MID2","device":"/dev/ttyUSB0","mode":1,"time":"1989-07-02T00:05:02.040Z","ept":0.005}
DEBUG:root:01/01/1970 H:49:46 app.py | ValueError | GrabGPS() | NO GPS FOUND: {"class":"TPV","tag":"MID2","device":"/dev/ttyUSB0","mode":1,"time":"1989-07-02T00:05:04.040Z","ept":0.005}
WARNING:root:01/01/1970 H:49:47 USB HAS BEEN RESET
DEBUG:root:01/01/1970 H:49:47 app.py | ValueError | GrabGPS() | NO GPS FOUND: {"class":"TPV","tag":"MID2","device":"/dev/ttyUSB0","mode":1,"time":"1989-07-02T00:05:05.040Z","ept":0.005}
DEBUG:root:01/01/1970 H:49:49 app.py | ValueError | GrabGPS() | NO GPS FOUND: {"class":"TPV","tag":"MID2","device":"/dev/ttyUSB0","mode":1,"time":"1989-07-02T00:05:07.040Z","ept":0.005}
DEBUG:root:01/01/1970 H:49:50 app.py | ValueError | GrabGPS() | NO GPS FOUND: {"class":"TPV","tag":"MID2","device":"/dev/ttyUSB0","mode":1,"time":"1989-07-02T00:05:08.040Z","ept":0.005}
DEBUG:root:01/01/1970 H:49:52 app.py | ValueError | GrabGPS() | NO GPS FOUND: {"class":"TPV","tag":"MID2","device":"/dev/ttyUSB0","mode":1,"time":"1989-07-02T00:05:10.040Z","ept":0.005}
DEBUG:root:01/01/1970 H:49:53 app.py | ValueError | GrabGPS() | NO GPS FOUND: {"class":"TPV","tag":"MID2","device":"/dev/ttyUSB0","mode":1,"time":"1989-07-02T00:05:11.040Z","ept":0.005}
DEBUG:root:01/01/1970 H:49:55 app.py | ValueError | GrabGPS() | NO GPS FOUND: {"class":"TPV","tag":"MID2","device":"/dev/ttyUSB0","mode":1,"time":"1989-07-02T00:05:13.040Z","ept":0.005}
DEBUG:root:01/01/1970 H:49:56 app.py | ValueError | GrabGPS() | NO GPS FOUND: {"class":"TPV","tag":"MID2","device":"/dev/ttyUSB0","mode":1,"time":"1989-07-02T00:05:14.040Z","ept":0.005}
DEBUG:root:01/01/1970 H:49:58 app.py | ValueError | GrabGPS() | NO GPS FOUND: {"class":"TPV","tag":"MID2","device":"/dev/ttyUSB0","mode":1,"time":"1989-07-02T00:05:16.040Z","ept":0.005}
DEBUG:root:01/01/1970 H:49:59 app.py | ValueError | GrabGPS() | NO GPS FOUND: {"class":"TPV","tag":"MID2","device":"/dev/ttyUSB0","mode":1,"time":"1989-07-02T00:05:17.040Z","ept":0.005}
DEBUG:root:01/01/1970 H:50:01 app.py | ValueError | GrabGPS() | NO GPS FOUND: {"class":"TPV","tag":"MID2","device":"/dev/ttyUSB0","mode":1,"time":"1989-07-02T00:05:19.040Z","ept":0.005}
DEBUG:root:01/01/1970 H:50:02 app.py | ValueError | GrabGPS() | NO GPS FOUND: {"class":"TPV","tag":"MID2","device":"/dev/ttyUSB0","mode":1,"time":"1989-07-02T00:05:20.040Z","ept":0.005}
DEBUG:root:01/01/1970 H:50:04 app.py | ValueError | GrabGPS() | NO GPS FOUND: {"class":"TPV","tag":"MID2","device":"/dev/ttyUSB0","mode":1,"time":"1989-07-02T00:05:22.040Z","ept":0.005}
DEBUG:root:01/01/1970 H:50:05 app.py | ValueError | GrabGPS() | NO GPS FOUND: {"class":"TPV","tag":"MID2","device":"/dev/ttyUSB0","mode":1,"time":"1989-07-02T00:05:23.040Z","ept":0.005}
DEBUG:root:01/01/1970 H:50:07 app.py | ValueError | GrabGPS() | NO GPS FOUND: {"class":"TPV","tag":"MID2","device":"/dev/ttyUSB0","mode":1,"time":"1989-07-02T00:05:25.040Z","ept":0.005}
DEBUG:root:01/01/1970 H:50:08 app.py | ValueError | GrabGPS() | NO GPS FOUND: {"class":"TPV","tag":"MID2","device":"/dev/ttyUSB0","mode":1,"time":"1989-07-02T00:05:26.040Z","ept":0.005}
WARNING:root:01/01/1970 H:50:09 USB HAS BEEN RESET
DEBUG:root:01/01/1970 H:50:10 app.py | ValueError | GrabGPS() | NO GPS FOUND: {"class":"TPV","tag":"MID2","device":"/dev/ttyUSB0","mode":1,"time":"1989-07-02T00:05:28.040Z","ept":0.005}
DEBUG:root:01/01/1970 H:50:11 app.py | ValueError | GrabGPS() | NO GPS FOUND: {"class":"TPV","tag":"MID2","device":"/dev/ttyUSB0","mode":1,"time":"1989-07-02T00:05:29.040Z","ept":0.005}
DEBUG:root:01/01/1970 H:50:13 app.py | ValueError | GrabGPS() | NO GPS FOUND: {"class":"TPV","tag":"MID2","device":"/dev/ttyUSB0","mode":1,"time":"1989-07-02T00:05:31.040Z","ept":0.005}
DEBUG:root:01/01/1970 H:50:14 app.py | ValueError | GrabGPS() | NO GPS FOUND: {"class":"TPV","tag":"MID2","device":"/dev/ttyUSB0","mode":1,"time":"1989-07-02T00:05:32.040Z","ept":0.005}
DEBUG:root:01/01/1970 H:50:16 app.py | ValueError | GrabGPS() | NO GPS FOUND: {"class":"TPV","tag":"MID2","device":"/dev/ttyUSB0","mode":1,"time":"1989-07-02T00:05:34.040Z","ept":0.005}
DEBUG:root:01/01/1970 H:50:17 app.py | ValueError | GrabGPS() | NO GPS FOUND: {"class":"TPV","tag":"MID2","device":"/dev/ttyUSB0","mode":1,"time":"1989-07-02T00:05:35.040Z","ept":0.005}
DEBUG:root:01/01/1970 H:50:19 app.py | ValueError | GrabGPS() | NO GPS FOUND: {"class":"TPV","tag":"MID2","device":"/dev/ttyUSB0","mode":1,"time":"1989-07-02T00:05:37.040Z","ept":0.005}
DEBUG:root:01/01/1970 H:50:20 app.py | ValueError | GrabGPS() | NO GPS FOUND: {"class":"TPV","tag":"MID2","device":"/dev/ttyUSB0","mode":1,"time":"1989-07-02T00:05:38.040Z","ept":0.005}
DEBUG:root:01/01/1970 H:50:22 app.py | ValueError | GrabGPS() | NO GPS FOUND: {"class":"TPV","tag":"MID2","device":"/dev/ttyUSB0","mode":1,"time":"1989-07-02T00:05:40.040Z","ept":0.005}
DEBUG:root:01/01/1970 H:50:23 app.py | ValueError | GrabGPS() | NO GPS FOUND: {"class":"TPV","tag":"MID2","device":"/dev/ttyUSB0","mode":1,"time":"1989-07-02T00:05:41.040Z","ept":0.005}
DEBUG:root:01/01/1970 H:50:25 app.py | ValueError | GrabGPS() | NO GPS FOUND: {"class":"TPV","tag":"MID2","device":"/dev/ttyUSB0","mode":1,"time":"1989-07-02T00:05:43.040Z","ept":0.005}
DEBUG:root:01/01/1970 H:50:26 app.py | ValueError | GrabGPS() | NO GPS FOUND: {"class":"TPV","tag":"MID2","device":"/dev/ttyUSB0","mode":1,"time":"1989-07-02T00:05:44.040Z","ept":0.005}
DEBUG:root:01/01/1970 H:50:28 app.py | ValueError | GrabGPS() | NO GPS FOUND: {"class":"SKY","tag":"MID4","device":"/dev/ttyUSB0","time":"1989-07-02T00:05:46.040Z","hdop":0.00}
DEBUG:root:01/01/1970 H:50:30 app.py | ValueError | GrabGPS() | NO GPS FOUND: {"class":"DEVICE","path":"/dev/ttyUSB0","activated":0}
DEBUG:root:01/01/1970 H:50:33 app.py | ValueError | GrabGPS() | NO GPS FOUND: {"class":"DEVICE","path":"/dev/ttyUSB0","activated":"1970-01-01T00:50:33.362Z","driver":"SiRF binary","subtype":"GSW3.5.0_3.5.00.00-SDK-3EP2.01 ","native":1,"bps":4800,"parity":"N","stopbits":1,"cycle":1.00}
DEBUG:root:01/01/1970 H:50:34 app.py | ValueError | GrabGPS() | NO GPS FOUND: {"class":"TPV","tag":"MID2","device":"/dev/ttyUSB0","mode":1,"time":"1989-07-01T23:59:46.040Z","ept":0.005}
DEBUG:root:01/01/1970 H:50:35 app.py | ValueError | GrabGPS() | NO GPS FOUND: {"class":"TPV","tag":"MID2","device":"/dev/ttyUSB0","mode":1,"time":"1989-07-01T23:59:47.050Z","ept":0.005}
DEBUG:root:01/01/1970 H:50:36 app.py | ValueError | GrabGPS() | NO GPS FOUND: {"class":"SKY","tag":"MID4","device":"/dev/ttyUSB0","time":"1989-07-01T23:59:49.050Z","hdop":0.00}
DEBUG:root:01/01/1970 H:50:38 app.py | ValueError | GrabGPS() | NO GPS FOUND: {"class":"TPV","tag":"MID2","device":"/dev/ttyUSB0","mode":1,"time":"1989-07-01T23:59:51.050Z","ept":0.005}
DEBUG:root:01/01/1970 H:50:39 app.py | ValueError | GrabGPS() | NO GPS FOUND: {"class":"TPV","tag":"MID2","device":"/dev/ttyUSB0","mode":1,"time":"1989-07-01T23:59:52.050Z","ept":0.005}
DEBUG:root:01/01/1970 H:50:41 app.py | ValueError | GrabGPS() | NO GPS FOUND: {"class":"TPV","tag":"MID2","device":"/dev/ttyUSB0","mode":1,"time":"1989-07-01T23:59:54.050Z","ept":0.005}
DEBUG:root:01/01/1970 H:50:42 app.py | ValueError | GrabGPS() | NO GPS FOUND: {"class":"TPV","tag":"MID2","device":"/dev/ttyUSB0","mode":1,"time":"1989-07-01T23:59:55.040Z","ept":0.005}
DEBUG:root:01/01/1970 H:50:44 app.py | ValueError | GrabGPS() | NO GPS FOUND: {"class":"TPV","tag":"MID2","device":"/dev/ttyUSB0","mode":1,"time":"1989-07-01T23:59:57.050Z","ept":0.005}
DEBUG:root:01/01/1970 H:50:45 app.py | ValueError | GrabGPS() | NO GPS FOUND: {"class":"TPV","tag":"MID2","device":"/dev/ttyUSB0","mode":1,"time":"1989-07-01T23:59:58.040Z","ept":0.005}
DEBUG:root:01/01/1970 H:50:47 app.py | ValueError | GrabGPS() | NO GPS FOUND: {"class":"TPV","tag":"MID2","device":"/dev/ttyUSB0","mode":1,"time":"1989-07-02T00:00:00.050Z","ept":0.005}
DEBUG:root:01/01/1970 H:50:48 app.py | ValueError | GrabGPS() | NO GPS FOUND: {"class":"TPV","tag":"MID2","device":"/dev/ttyUSB0","mode":1,"time":"1989-07-02T00:00:01.040Z","ept":0.005}
DEBUG:root:01/01/1970 H:50:50 app.py | ValueError | GrabGPS() | NO GPS FOUND: {"class":"TPV","tag":"MID2","device":"/dev/ttyUSB0","mode":1,"time":"1989-07-02T00:00:03.050Z","ept":0.005}
DEBUG:root:01/01/1970 H:50:51 app.py | ValueError | GrabGPS() | NO GPS FOUND: {"class":"TPV","tag":"MID2","device":"/dev/ttyUSB0","mode":1,"time":"1989-07-02T00:00:04.040Z","ept":0.005}
DEBUG:root:01/01/1970 H:50:53 app.py | ValueError | GrabGPS() | NO GPS FOUND: {"class":"TPV","tag":"MID2","device":"/dev/ttyUSB0","mode":1,"time":"1989-07-02T00:00:06.030Z","ept":0.005}
DEBUG:root:01/01/1970 H:50:54 app.py | ValueError | GrabGPS() | NO GPS FOUND: {"class":"TPV","tag":"MID2","device":"/dev/ttyUSB0","mode":1,"time":"1989-07-02T00:00:07.040Z","ept":0.005}
DEBUG:root:01/01/1970 H:50:56 app.py | ValueError | GrabGPS() | NO GPS FOUND: {"class":"TPV","tag":"MID2","device":"/dev/ttyUSB0","mode":1,"time":"1989-07-02T00:00:09.050Z","ept":0.005}
DEBUG:root:01/01/1970 H:50:57 app.py | ValueError | GrabGPS() | NO GPS FOUND: {"class":"TPV","tag":"MID2","device":"/dev/ttyUSB0","mode":1,"time":"1989-07-02T00:00:10.040Z","ept":0.005}
INFO:root:01/01/1970 H:51:07 Started script
WARNING:root:01/01/1970 H:51:09 USB HAS BEEN RESET
DEBUG:root:01/01/1970 H:51:09 app.py | ValueError | GrabGPS() | NO GPS FOUND: {"class":"SKY","tag":"MID4","device":"/dev/ttyUSB0","time":"1989-07-02T00:00:22.040Z","hdop":0.00}
DEBUG:root:01/01/1970 H:51:11 app.py | ValueError | GrabGPS() | NO GPS FOUND: {"class":"TPV","tag":"MID2","device":"/dev/ttyUSB0","mode":1,"time":"1989-07-02T00:00:24.050Z","ept":0.005}
DEBUG:root:01/01/1970 H:51:12 app.py | ValueError | GrabGPS() | NO GPS FOUND: {"class":"TPV","tag":"MID2","device":"/dev/ttyUSB0","mode":1,"time":"1989-07-02T00:00:25.040Z","ept":0.005}
DEBUG:root:01/01/1970 H:51:14 app.py | ValueError | GrabGPS() | NO GPS FOUND: {"class":"TPV","tag":"MID2","device":"/dev/ttyUSB0","mode":1,"time":"1989-07-02T00:00:27.050Z","ept":0.005}
DEBUG:root:01/01/1970 H:51:15 app.py | ValueError | GrabGPS() | NO GPS FOUND: {"class":"TPV","tag":"MID2","device":"/dev/ttyUSB0","mode":1,"time":"1989-07-02T00:00:28.040Z","ept":0.005}
DEBUG:root:01/01/1970 H:51:17 app.py | ValueError | GrabGPS() | NO GPS FOUND: {"class":"TPV","tag":"MID2","device":"/dev/ttyUSB0","mode":1,"time":"1989-07-02T00:00:30.050Z","ept":0.005}
DEBUG:root:01/01/1970 H:51:18 app.py | ValueError | GrabGPS() | NO GPS FOUND: {"class":"TPV","tag":"MID2","device":"/dev/ttyUSB0","mode":1,"time":"1989-07-02T00:00:31.040Z","ept":0.005}
DEBUG:root:01/01/1970 H:51:20 app.py | ValueError | GrabGPS() | NO GPS FOUND: {"class":"TPV","tag":"MID2","device":"/dev/ttyUSB0","mode":1,"time":"1989-07-02T00:00:33.050Z","ept":0.005}
DEBUG:root:01/01/1970 H:51:21 app.py | ValueError | GrabGPS() | NO GPS FOUND: {"class":"TPV","tag":"MID2","device":"/dev/ttyUSB0","mode":1,"time":"1989-07-02T00:00:34.040Z","ept":0.005}
DEBUG:root:01/01/1970 H:51:23 app.py | ValueError | GrabGPS() | NO GPS FOUND: {"class":"TPV","tag":"MID2","device":"/dev/ttyUSB0","mode":1,"time":"1989-07-02T00:00:36.050Z","ept":0.005}
DEBUG:root:01/01/1970 H:51:24 app.py | ValueError | GrabGPS() | NO GPS FOUND: {"class":"TPV","tag":"MID2","device":"/dev/ttyUSB0","mode":1,"time":"1989-07-02T00:00:37.040Z","ept":0.005}
DEBUG:root:01/01/1970 H:51:26 app.py | ValueError | GrabGPS() | NO GPS FOUND: {"class":"TPV","tag":"MID2","device":"/dev/ttyUSB0","mode":1,"time":"1989-07-02T00:00:39.050Z","ept":0.005}
DEBUG:root:01/01/1970 H:51:27 app.py | ValueError | GrabGPS() | NO GPS FOUND: {"class":"TPV","tag":"MID2","device":"/dev/ttyUSB0","mode":1,"time":"1989-07-02T00:00:40.040Z","ept":0.005}
DEBUG:root:01/01/1970 H:51:29 app.py | ValueError | GrabGPS() | NO GPS FOUND: {"class":"TPV","tag":"MID2","device":"/dev/ttyUSB0","mode":1,"time":"1989-07-02T00:00:42.050Z","ept":0.005}
DEBUG:root:01/01/1970 H:51:30 app.py | ValueError | GrabGPS() | NO GPS FOUND: {"class":"TPV","tag":"MID2","device":"/dev/ttyUSB0","mode":1,"time":"1989-07-02T00:00:43.040Z","ept":0.005}
WARNING:root:01/01/1970 H:51:31 USB HAS BEEN RESET
DEBUG:root:01/01/1970 H:51:32 app.py | ValueError | GrabGPS() | NO GPS FOUND: {"class":"TPV","tag":"MID2","device":"/dev/ttyUSB0","mode":1,"time":"1989-07-02T00:00:45.050Z","ept":0.005}
DEBUG:root:01/01/1970 H:51:33 app.py | ValueError | GrabGPS() | NO GPS FOUND: {"class":"TPV","tag":"MID2","device":"/dev/ttyUSB0","mode":1,"time":"1989-07-02T00:00:46.040Z","ept":0.005}
DEBUG:root:01/01/1970 H:51:37 app.py | ValueError | GrabGPS() | NO GPS FOUND: {"class":"DEVICE","path":"/dev/ttyUSB0","activated":3097.257783}
DEBUG:root:01/01/1970 H:51:38 app.py | ValueError | GrabGPS() | NO GPS FOUND: {"class":"TPV","tag":"MID2","device":"/dev/ttyUSB0","mode":1,"time":"1989-07-01T23:59:46.040Z","ept":0.005}
DEBUG:root:01/01/1970 H:51:38 app.py | ValueError | GrabGPS() | NO GPS FOUND: {"class":"TPV","tag":"MID2","device":"/dev/ttyUSB0","mode":1,"time":"1989-07-01T23:59:47.050Z","ept":0.005}
DEBUG:root:01/01/1970 H:51:39 app.py | ValueError | GrabGPS() | NO GPS FOUND: {"class":"TPV","tag":"MID2","device":"/dev/ttyUSB0","mode":1,"time":"1989-07-01T23:59:48.050Z","ept":0.005}
DEBUG:root:01/01/1970 H:51:41 app.py | ValueError | GrabGPS() | NO GPS FOUND: {"class":"SKY","tag":"MID4","device":"/dev/ttyUSB0","time":"1989-07-01T23:59:50.050Z","hdop":0.00}
DEBUG:root:01/01/1970 H:51:43 app.py | ValueError | GrabGPS() | NO GPS FOUND: {"class":"TPV","tag":"MID2","device":"/dev/ttyUSB0","mode":1,"time":"1989-07-01T23:59:52.050Z","ept":0.005}
DEBUG:root:01/01/1970 H:51:44 app.py | ValueError | GrabGPS() | NO GPS FOUND: {"class":"TPV","tag":"MID2","device":"/dev/ttyUSB0","mode":1,"time":"1989-07-01T23:59:53.040Z","ept":0.005}
DEBUG:root:01/01/1970 H:51:46 app.py | ValueError | GrabGPS() | NO GPS FOUND: {"class":"TPV","tag":"MID2","device":"/dev/ttyUSB0","mode":1,"time":"1989-07-01T23:59:55.040Z","ept":0.005}
DEBUG:root:01/01/1970 H:51:47 app.py | ValueError | GrabGPS() | NO GPS FOUND: {"class":"TPV","tag":"MID2","device":"/dev/ttyUSB0","mode":1,"time":"1989-07-01T23:59:56.040Z","ept":0.005}
DEBUG:root:01/01/1970 H:51:49 app.py | ValueError | GrabGPS() | NO GPS FOUND: {"class":"TPV","tag":"MID2","device":"/dev/ttyUSB0","mode":1,"time":"1989-07-01T23:59:58.040Z","ept":0.005}
DEBUG:root:01/01/1970 H:51:50 app.py | ValueError | GrabGPS() | NO GPS FOUND: {"class":"TPV","tag":"MID2","device":"/dev/ttyUSB0","mode":1,"time":"1989-07-01T23:59:59.040Z","ept":0.005}
DEBUG:root:01/01/1970 H:51:52 app.py | ValueError | GrabGPS() | NO GPS FOUND: {"class":"TPV","tag":"MID2","device":"/dev/ttyUSB0","mode":1,"time":"1989-07-02T00:00:01.040Z","ept":0.005}
DEBUG:root:01/01/1970 H:51:53 app.py | ValueError | GrabGPS() | NO GPS FOUND: {"class":"TPV","tag":"MID2","device":"/dev/ttyUSB0","mode":1,"time":"1989-07-02T00:00:02.040Z","ept":0.005}
WARNING:root:01/01/1970 H:51:54 USB HAS BEEN RESET
DEBUG:root:01/01/1970 H:51:55 app.py | ValueError | GrabGPS() | NO GPS FOUND: {"class":"TPV","tag":"MID2","device":"/dev/ttyUSB0","mode":1,"time":"1989-07-02T00:00:04.040Z","ept":0.005}
DEBUG:root:01/01/1970 H:51:56 app.py | ValueError | GrabGPS() | NO GPS FOUND: {"class":"TPV","tag":"MID2","device":"/dev/ttyUSB0","mode":1,"time":"1989-07-02T00:00:05.040Z","ept":0.005}
DEBUG:root:01/01/1970 H:51:58 app.py | ValueError | GrabGPS() | NO GPS FOUND: {"class":"TPV","tag":"MID2","device":"/dev/ttyUSB0","mode":1,"time":"1989-07-02T00:00:07.040Z","ept":0.005}
DEBUG:root:01/01/1970 H:51:59 app.py | ValueError | GrabGPS() | NO GPS FOUND: {"class":"TPV","tag":"MID2","device":"/dev/ttyUSB0","mode":1,"time":"1989-07-02T00:00:08.040Z","ept":0.005}
DEBUG:root:01/01/1970 H:52:01 app.py | ValueError | GrabGPS() | NO GPS FOUND: {"class":"TPV","tag":"MID2","device":"/dev/ttyUSB0","mode":1,"time":"1989-07-02T00:00:10.040Z","ept":0.005}
DEBUG:root:01/01/1970 H:52:02 app.py | ValueError | GrabGPS() | NO GPS FOUND: {"class":"TPV","tag":"MID2","device":"/dev/ttyUSB0","mode":1,"time":"1989-07-02T00:00:11.040Z","ept":0.005}
DEBUG:root:01/01/1970 H:52:04 app.py | ValueError | GrabGPS() | NO GPS FOUND: {"class":"TPV","tag":"MID2","device":"/dev/ttyUSB0","mode":1,"time":"1989-07-02T00:00:13.040Z","ept":0.005}
DEBUG:root:01/01/1970 H:52:05 app.py | ValueError | GrabGPS() | NO GPS FOUND: {"class":"TPV","tag":"MID2","device":"/dev/ttyUSB0","mode":1,"time":"1989-07-02T00:00:14.040Z","ept":0.005}
DEBUG:root:01/01/1970 H:52:07 app.py | ValueError | GrabGPS() | NO GPS FOUND: {"class":"TPV","tag":"MID2","device":"/dev/ttyUSB0","mode":1,"time":"1989-07-02T00:00:16.040Z","ept":0.005}
DEBUG:root:01/01/1970 H:52:08 app.py | ValueError | GrabGPS() | NO GPS FOUND: {"class":"TPV","tag":"MID2","device":"/dev/ttyUSB0","mode":1,"time":"1989-07-02T00:00:17.040Z","ept":0.005}
DEBUG:root:01/01/1970 H:52:10 app.py | ValueError | GrabGPS() | NO GPS FOUND: {"class":"TPV","tag":"MID2","device":"/dev/ttyUSB0","mode":1,"time":"1989-07-02T00:00:19.040Z","ept":0.005}
DEBUG:root:01/01/1970 H:52:11 app.py | ValueError | GrabGPS() | NO GPS FOUND: {"class":"TPV","tag":"MID2","device":"/dev/ttyUSB0","mode":1,"time":"1989-07-02T00:00:20.040Z","ept":0.005}
DEBUG:root:01/01/1970 H:52:13 app.py | ValueError | GrabGPS() | NO GPS FOUND: {"class":"TPV","tag":"MID2","device":"/dev/ttyUSB0","mode":1,"time":"1989-07-02T00:00:22.040Z","ept":0.005}
DEBUG:root:01/01/1970 H:52:14 app.py | ValueError | GrabGPS() | NO GPS FOUND: {"class":"TPV","tag":"MID2","device":"/dev/ttyUSB0","mode":1,"time":"1989-07-02T00:00:23.040Z","ept":0.005}
DEBUG:root:01/01/1970 H:52:16 app.py | ValueError | GrabGPS() | NO GPS FOUND: {"class":"TPV","tag":"MID2","device":"/dev/ttyUSB0","mode":1,"time":"1989-07-02T00:00:25.040Z","ept":0.005}
WARNING:root:01/01/1970 H:52:16 USB HAS BEEN RESET
DEBUG:root:01/01/1970 H:52:17 app.py | ValueError | GrabGPS() | NO GPS FOUND: {"class":"TPV","tag":"MID2","device":"/dev/ttyUSB0","mode":1,"time":"1989-07-02T00:00:26.040Z","ept":0.005}
DEBUG:root:01/01/1970 H:52:19 app.py | ValueError | GrabGPS() | NO GPS FOUND: {"class":"TPV","tag":"MID2","device":"/dev/ttyUSB0","mode":1,"time":"1989-07-02T00:00:28.040Z","ept":0.005}
DEBUG:root:01/01/1970 H:52:20 app.py | ValueError | GrabGPS() | NO GPS FOUND: {"class":"TPV","tag":"MID2","device":"/dev/ttyUSB0","mode":1,"time":"1989-07-02T00:00:29.040Z","ept":0.005}
DEBUG:root:01/01/1970 H:52:22 app.py | ValueError | GrabGPS() | NO GPS FOUND: {"class":"TPV","tag":"MID2","device":"/dev/ttyUSB0","mode":1,"time":"1989-07-02T00:00:31.040Z","ept":0.005}
DEBUG:root:01/01/1970 H:52:23 app.py | ValueError | GrabGPS() | NO GPS FOUND: {"class":"TPV","tag":"MID2","device":"/dev/ttyUSB0","mode":1,"time":"1989-07-02T00:00:32.040Z","ept":0.005}
DEBUG:root:01/01/1970 H:52:25 app.py | ValueError | GrabGPS() | NO GPS FOUND: {"class":"TPV","tag":"MID2","device":"/dev/ttyUSB0","mode":1,"time":"1989-07-02T00:00:34.040Z","ept":0.005}
DEBUG:root:01/01/1970 H:52:26 app.py | ValueError | GrabGPS() | NO GPS FOUND: {"class":"TPV","tag":"MID2","device":"/dev/ttyUSB0","mode":1,"time":"1989-07-02T00:00:35.040Z","ept":0.005}
DEBUG:root:01/01/1970 H:52:28 app.py | ValueError | GrabGPS() | NO GPS FOUND: {"class":"TPV","tag":"MID2","device":"/dev/ttyUSB0","mode":1,"time":"1989-07-02T00:00:37.040Z","ept":0.005}
DEBUG:root:01/01/1970 H:52:29 app.py | ValueError | GrabGPS() | NO GPS FOUND: {"class":"TPV","tag":"MID2","device":"/dev/ttyUSB0","mode":1,"time":"1989-07-02T00:00:38.040Z","ept":0.005}
DEBUG:root:01/01/1970 H:52:31 app.py | ValueError | GrabGPS() | NO GPS FOUND: {"class":"TPV","tag":"MID2","device":"/dev/ttyUSB0","mode":1,"time":"1989-07-02T00:00:40.040Z","ept":0.005}
DEBUG:root:01/01/1970 H:52:32 app.py | ValueError | GrabGPS() | NO GPS FOUND: {"class":"TPV","tag":"MID2","device":"/dev/ttyUSB0","mode":1,"time":"1989-07-02T00:00:41.040Z","ept":0.005}
DEBUG:root:01/01/1970 H:52:34 app.py | ValueError | GrabGPS() | NO GPS FOUND: {"class":"TPV","tag":"MID2","device":"/dev/ttyUSB0","mode":1,"time":"1989-07-02T00:00:43.040Z","ept":0.005}
DEBUG:root:01/01/1970 H:52:35 app.py | ValueError | GrabGPS() | NO GPS FOUND: {"class":"TPV","tag":"MID2","device":"/dev/ttyUSB0","mode":1,"time":"1989-07-02T00:00:44.040Z","ept":0.005}
DEBUG:root:01/01/1970 H:52:37 app.py | ValueError | GrabGPS() | NO GPS FOUND: {"class":"TPV","tag":"MID2","device":"/dev/ttyUSB0","mode":1,"time":"1989-07-02T00:00:46.040Z","ept":0.005}
DEBUG:root:01/01/1970 H:52:38 app.py | ValueError | GrabGPS() | NO GPS FOUND: {"class":"TPV","tag":"MID2","device":"/dev/ttyUSB0","mode":1,"time":"1989-07-02T00:00:47.040Z","ept":0.005}
WARNING:root:01/01/1970 H:52:38 USB HAS BEEN RESET
DEBUG:root:01/01/1970 H:52:40 app.py | ValueError | GrabGPS() | NO GPS FOUND: {"class":"TPV","tag":"MID2","device":"/dev/ttyUSB0","mode":1,"time":"1989-07-02T00:00:49.040Z","ept":0.005}
DEBUG:root:01/01/1970 H:52:41 app.py | ValueError | GrabGPS() | NO GPS FOUND: {"class":"TPV","tag":"MID2","device":"/dev/ttyUSB0","mode":1,"time":"1989-07-02T00:00:50.040Z","ept":0.005}
DEBUG:root:01/01/1970 H:52:43 app.py | ValueError | GrabGPS() | NO GPS FOUND: {"class":"SKY","tag":"MID4","device":"/dev/ttyUSB0","time":"1989-07-02T00:00:52.040Z","hdop":0.00}
DEBUG:root:01/01/1970 H:52:45 app.py | ValueError | GrabGPS() | NO GPS FOUND: {"class":"TPV","tag":"MID2","device":"/dev/ttyUSB0","mode":1,"time":"1989-07-02T00:00:54.050Z","ept":0.005}
DEBUG:root:01/01/1970 H:52:46 app.py | ValueError | GrabGPS() | NO GPS FOUND: {"class":"TPV","tag":"MID2","device":"/dev/ttyUSB0","mode":1,"time":"1989-07-02T00:00:55.040Z","ept":0.005}
DEBUG:root:01/01/1970 H:52:48 app.py | ValueError | GrabGPS() | NO GPS FOUND: {"class":"TPV","tag":"MID2","device":"/dev/ttyUSB0","mode":1,"time":"1989-07-02T00:00:57.050Z","ept":0.005}
DEBUG:root:01/01/1970 H:52:49 app.py | ValueError | GrabGPS() | NO GPS FOUND: {"class":"TPV","tag":"MID2","device":"/dev/ttyUSB0","mode":1,"time":"1989-07-02T00:00:58.040Z","ept":0.005}
DEBUG:root:01/01/1970 H:52:51 app.py | ValueError | GrabGPS() | NO GPS FOUND: {"class":"TPV","tag":"MID2","device":"/dev/ttyUSB0","mode":1,"time":"1989-07-02T00:01:00.050Z","ept":0.005}
DEBUG:root:01/01/1970 H:52:52 app.py | ValueError | GrabGPS() | NO GPS FOUND: {"class":"TPV","tag":"MID2","device":"/dev/ttyUSB0","mode":1,"time":"1989-07-02T00:01:01.040Z","ept":0.005}
DEBUG:root:01/01/1970 H:52:54 app.py | ValueError | GrabGPS() | NO GPS FOUND: {"class":"TPV","tag":"MID2","device":"/dev/ttyUSB0","mode":1,"time":"1989-07-02T00:01:03.060Z","ept":0.005}
DEBUG:root:01/01/1970 H:52:55 app.py | ValueError | GrabGPS() | NO GPS FOUND: {"class":"TPV","tag":"MID2","device":"/dev/ttyUSB0","mode":1,"time":"1989-07-02T00:01:04.040Z","ept":0.005}
DEBUG:root:01/01/1970 H:52:57 app.py | ValueError | GrabGPS() | NO GPS FOUND: {"class":"TPV","tag":"MID2","device":"/dev/ttyUSB0","mode":1,"time":"1989-07-02T00:01:06.050Z","ept":0.005}
DEBUG:root:01/01/1970 H:52:58 app.py | ValueError | GrabGPS() | NO GPS FOUND: {"class":"TPV","tag":"MID2","device":"/dev/ttyUSB0","mode":1,"time":"1989-07-02T00:01:07.040Z","ept":0.005}
DEBUG:root:01/01/1970 H:53:00 app.py | ValueError | GrabGPS() | NO GPS FOUND: {"class":"TPV","tag":"MID2","device":"/dev/ttyUSB0","mode":1,"time":"1989-07-02T00:01:09.050Z","ept":0.005}
WARNING:root:01/01/1970 H:53:01 USB HAS BEEN RESET
DEBUG:root:01/01/1970 H:53:01 app.py | ValueError | GrabGPS() | NO GPS FOUND: {"class":"TPV","tag":"MID2","device":"/dev/ttyUSB0","mode":1,"time":"1989-07-02T00:01:10.040Z","ept":0.005}
DEBUG:root:01/01/1970 H:53:03 app.py | ValueError | GrabGPS() | NO GPS FOUND: {"class":"TPV","tag":"MID2","device":"/dev/ttyUSB0","mode":1,"time":"1989-07-02T00:01:12.050Z","ept":0.005}
DEBUG:root:01/01/1970 H:53:04 app.py | ValueError | GrabGPS() | NO GPS FOUND: {"class":"TPV","tag":"MID2","device":"/dev/ttyUSB0","mode":1,"time":"1989-07-02T00:01:13.040Z","ept":0.005}
DEBUG:root:01/01/1970 H:53:06 app.py | ValueError | GrabGPS() | NO GPS FOUND: {"class":"TPV","tag":"MID2","device":"/dev/ttyUSB0","mode":1,"time":"1989-07-02T00:01:15.050Z","ept":0.005}
DEBUG:root:01/01/1970 H:53:07 app.py | ValueError | GrabGPS() | NO GPS FOUND: {"class":"TPV","tag":"MID2","device":"/dev/ttyUSB0","mode":1,"time":"1989-07-02T00:01:16.040Z","ept":0.005}
DEBUG:root:01/01/1970 H:53:09 app.py | ValueError | GrabGPS() | NO GPS FOUND: {"class":"TPV","tag":"MID2","device":"/dev/ttyUSB0","mode":1,"time":"1989-07-02T00:01:18.050Z","ept":0.005}
DEBUG:root:01/01/1970 H:53:10 app.py | ValueError | GrabGPS() | NO GPS FOUND: {"class":"TPV","tag":"MID2","device":"/dev/ttyUSB0","mode":1,"time":"1989-07-02T00:01:19.040Z","ept":0.005}
DEBUG:root:01/01/1970 H:53:12 app.py | ValueError | GrabGPS() | NO GPS FOUND: {"class":"TPV","tag":"MID2","device":"/dev/ttyUSB0","mode":1,"time":"1989-07-02T00:01:21.050Z","ept":0.005}
DEBUG:root:01/01/1970 H:53:13 app.py | ValueError | GrabGPS() | NO GPS FOUND: {"class":"TPV","tag":"MID2","device":"/dev/ttyUSB0","mode":1,"time":"1989-07-02T00:01:22.040Z","ept":0.005}
DEBUG:root:01/01/1970 H:53:15 app.py | ValueError | GrabGPS() | NO GPS FOUND: {"class":"TPV","tag":"MID2","device":"/dev/ttyUSB0","mode":1,"time":"1989-07-02T00:01:24.050Z","ept":0.005}
DEBUG:root:01/01/1970 H:53:16 app.py | ValueError | GrabGPS() | NO GPS FOUND: {"class":"TPV","tag":"MID2","device":"/dev/ttyUSB0","mode":1,"time":"1989-07-02T00:01:25.040Z","ept":0.005}
DEBUG:root:01/01/1970 H:53:18 app.py | ValueError | GrabGPS() | NO GPS FOUND: {"class":"TPV","tag":"MID2","device":"/dev/ttyUSB0","mode":1,"time":"1989-07-02T00:01:27.050Z","ept":0.005}
DEBUG:root:01/01/1970 H:53:19 app.py | ValueError | GrabGPS() | NO GPS FOUND: {"class":"TPV","tag":"MID2","device":"/dev/ttyUSB0","mode":1,"time":"1989-07-02T00:01:28.040Z","ept":0.005}
DEBUG:root:01/01/1970 H:53:21 app.py | ValueError | GrabGPS() | NO GPS FOUND: {"class":"TPV","tag":"MID2","device":"/dev/ttyUSB0","mode":1,"time":"1989-07-02T00:01:30.050Z","ept":0.005}
DEBUG:root:01/01/1970 H:53:22 app.py | ValueError | GrabGPS() | NO GPS FOUND: {"class":"TPV","tag":"MID2","device":"/dev/ttyUSB0","mode":1,"time":"1989-07-02T00:01:31.040Z","ept":0.005}
WARNING:root:01/01/1970 H:53:23 USB HAS BEEN RESET
DEBUG:root:01/01/1970 H:53:24 app.py | ValueError | GrabGPS() | NO GPS FOUND: {"class":"TPV","tag":"MID2","device":"/dev/ttyUSB0","mode":1,"time":"1989-07-02T00:01:33.040Z","ept":0.005}
DEBUG:root:01/01/1970 H:53:25 app.py | ValueError | GrabGPS() | NO GPS FOUND: {"class":"TPV","tag":"MID2","device":"/dev/ttyUSB0","mode":1,"time":"1989-07-02T00:01:34.040Z","ept":0.005}
DEBUG:root:01/01/1970 H:53:27 app.py | ValueError | GrabGPS() | NO GPS FOUND: {"class":"TPV","tag":"MID2","device":"/dev/ttyUSB0","mode":1,"time":"1989-07-02T00:01:36.040Z","ept":0.005}
DEBUG:root:01/01/1970 H:53:28 app.py | ValueError | GrabGPS() | NO GPS FOUND: {"class":"TPV","tag":"MID2","device":"/dev/ttyUSB0","mode":1,"time":"1989-07-02T00:01:37.040Z","ept":0.005}
DEBUG:root:01/01/1970 H:53:30 app.py | ValueError | GrabGPS() | NO GPS FOUND: {"class":"TPV","tag":"MID2","device":"/dev/ttyUSB0","mode":1,"time":"1989-07-02T00:01:39.040Z","ept":0.005}
DEBUG:root:01/01/1970 H:53:31 app.py | ValueError | GrabGPS() | NO GPS FOUND: {"class":"TPV","tag":"MID2","device":"/dev/ttyUSB0","mode":1,"time":"1989-07-02T00:01:40.040Z","ept":0.005}
DEBUG:root:01/01/1970 H:53:33 app.py | ValueError | GrabGPS() | NO GPS FOUND: {"class":"TPV","tag":"MID2","device":"/dev/ttyUSB0","mode":1,"time":"1989-07-02T00:01:42.040Z","ept":0.005}
DEBUG:root:01/01/1970 H:53:34 app.py | ValueError | GrabGPS() | NO GPS FOUND: {"class":"TPV","tag":"MID2","device":"/dev/ttyUSB0","mode":1,"time":"1989-07-02T00:01:43.040Z","ept":0.005}
DEBUG:root:01/01/1970 H:53:36 app.py | ValueError | GrabGPS() | NO GPS FOUND: {"class":"TPV","tag":"MID2","device":"/dev/ttyUSB0","mode":1,"time":"1989-07-02T00:01:45.040Z","ept":0.005}
DEBUG:root:01/01/1970 H:53:37 app.py | ValueError | GrabGPS() | NO GPS FOUND: {"class":"TPV","tag":"MID2","device":"/dev/ttyUSB0","mode":1,"time":"1989-07-02T00:01:46.040Z","ept":0.005}
DEBUG:root:01/01/1970 H:53:39 app.py | ValueError | GrabGPS() | NO GPS FOUND: {"class":"TPV","tag":"MID2","device":"/dev/ttyUSB0","mode":1,"time":"1989-07-02T00:01:48.040Z","ept":0.005}
DEBUG:root:01/01/1970 H:53:40 app.py | ValueError | GrabGPS() | NO GPS FOUND: {"class":"TPV","tag":"MID2","device":"/dev/ttyUSB0","mode":1,"time":"1989-07-02T00:01:49.040Z","ept":0.005}
DEBUG:root:01/01/1970 H:53:42 app.py | ValueError | GrabGPS() | NO GPS FOUND: {"class":"TPV","tag":"MID2","device":"/dev/ttyUSB0","mode":1,"time":"1989-07-02T00:01:51.040Z","ept":0.005}
DEBUG:root:01/01/1970 H:53:43 app.py | ValueError | GrabGPS() | NO GPS FOUND: {"class":"TPV","tag":"MID2","device":"/dev/ttyUSB0","mode":1,"time":"1989-07-02T00:01:52.040Z","ept":0.005}
DEBUG:root:01/01/1970 H:53:45 app.py | ValueError | GrabGPS() | NO GPS FOUND: {"class":"SKY","tag":"MID4","device":"/dev/ttyUSB0","time":"1989-07-02T00:01:54.040Z","hdop":0.00}
WARNING:root:01/01/1970 H:53:45 USB HAS BEEN RESET
DEBUG:root:01/01/1970 H:53:47 app.py | ValueError | GrabGPS() | NO GPS FOUND: {"class":"TPV","tag":"MID2","device":"/dev/ttyUSB0","mode":1,"time":"1989-07-02T00:01:56.040Z","ept":0.005}
DEBUG:root:01/01/1970 H:53:48 app.py | ValueError | GrabGPS() | NO GPS FOUND: {"class":"TPV","tag":"MID2","device":"/dev/ttyUSB0","mode":1,"time":"1989-07-02T00:01:57.040Z","ept":0.005}
DEBUG:root:01/01/1970 H:53:50 app.py | ValueError | GrabGPS() | NO GPS FOUND: {"class":"TPV","tag":"MID2","device":"/dev/ttyUSB0","mode":1,"time":"1989-07-02T00:01:59.040Z","ept":0.005}
DEBUG:root:01/01/1970 H:53:51 app.py | ValueError | GrabGPS() | NO GPS FOUND: {"class":"TPV","tag":"MID2","device":"/dev/ttyUSB0","mode":1,"time":"1989-07-02T00:02:00.040Z","ept":0.005}
DEBUG:root:01/01/1970 H:53:53 app.py | ValueError | GrabGPS() | NO GPS FOUND: {"class":"TPV","tag":"MID2","device":"/dev/ttyUSB0","mode":1,"time":"1989-07-02T00:02:02.040Z","ept":0.005}
DEBUG:root:01/01/1970 H:53:54 app.py | ValueError | GrabGPS() | NO GPS FOUND: {"class":"TPV","tag":"MID2","device":"/dev/ttyUSB0","mode":1,"time":"1989-07-02T00:02:03.040Z","ept":0.005}
DEBUG:root:01/01/1970 H:53:56 app.py | ValueError | GrabGPS() | NO GPS FOUND: {"class":"TPV","tag":"MID2","device":"/dev/ttyUSB0","mode":1,"time":"1989-07-02T00:02:05.040Z","ept":0.005}
DEBUG:root:01/01/1970 H:53:57 app.py | ValueError | GrabGPS() | NO GPS FOUND: {"class":"TPV","tag":"MID2","device":"/dev/ttyUSB0","mode":1,"time":"1989-07-02T00:02:06.040Z","ept":0.005}
DEBUG:root:01/01/1970 H:53:59 app.py | ValueError | GrabGPS() | NO GPS FOUND: {"class":"TPV","tag":"MID2","device":"/dev/ttyUSB0","mode":1,"time":"1989-07-02T00:02:08.040Z","ept":0.005}
DEBUG:root:01/01/1970 H:54:00 app.py | ValueError | GrabGPS() | NO GPS FOUND: {"class":"TPV","tag":"MID2","device":"/dev/ttyUSB0","mode":1,"time":"1989-07-02T00:02:09.040Z","ept":0.005}
DEBUG:root:01/01/1970 H:54:02 app.py | ValueError | GrabGPS() | NO GPS FOUND: {"class":"TPV","tag":"MID2","device":"/dev/ttyUSB0","mode":1,"time":"1989-07-02T00:02:11.040Z","ept":0.005}
DEBUG:root:01/01/1970 H:54:03 app.py | ValueError | GrabGPS() | NO GPS FOUND: {"class":"TPV","tag":"MID2","device":"/dev/ttyUSB0","mode":1,"time":"1989-07-02T00:02:12.040Z","ept":0.005}
DEBUG:root:01/01/1970 H:54:05 app.py | ValueError | GrabGPS() | NO GPS FOUND: {"class":"TPV","tag":"MID2","device":"/dev/ttyUSB0","mode":1,"time":"1989-07-02T00:02:14.040Z","ept":0.005}
DEBUG:root:01/01/1970 H:54:06 app.py | ValueError | GrabGPS() | NO GPS FOUND: {"class":"TPV","tag":"MID2","device":"/dev/ttyUSB0","mode":1,"time":"1989-07-02T00:02:15.040Z","ept":0.005}
WARNING:root:01/01/1970 H:54:08 USB HAS BEEN RESET
DEBUG:root:01/01/1970 H:54:08 app.py | ValueError | GrabGPS() | NO GPS FOUND: {"class":"TPV","tag":"MID2","device":"/dev/ttyUSB0","mode":1,"time":"1989-07-02T00:02:17.040Z","ept":0.005}
DEBUG:root:01/01/1970 H:54:09 app.py | ValueError | GrabGPS() | NO GPS FOUND: {"class":"TPV","tag":"MID2","device":"/dev/ttyUSB0","mode":1,"time":"1989-07-02T00:02:18.040Z","ept":0.005}
DEBUG:root:01/01/1970 H:54:11 app.py | ValueError | GrabGPS() | NO GPS FOUND: {"class":"TPV","tag":"MID2","device":"/dev/ttyUSB0","mode":1,"time":"1989-07-02T00:02:20.040Z","ept":0.005}
DEBUG:root:01/01/1970 H:54:12 app.py | ValueError | GrabGPS() | NO GPS FOUND: {"class":"TPV","tag":"MID2","device":"/dev/ttyUSB0","mode":1,"time":"1989-07-02T00:02:21.040Z","ept":0.005}
DEBUG:root:01/01/1970 H:54:14 app.py | ValueError | GrabGPS() | NO GPS FOUND: {"class":"TPV","tag":"MID2","device":"/dev/ttyUSB0","mode":1,"time":"1989-07-02T00:02:23.040Z","ept":0.005}
DEBUG:root:01/01/1970 H:54:15 app.py | ValueError | GrabGPS() | NO GPS FOUND: {"class":"TPV","tag":"MID2","device":"/dev/ttyUSB0","mode":1,"time":"1989-07-02T00:02:24.040Z","ept":0.005}
DEBUG:root:01/01/1970 H:54:17 app.py | ValueError | GrabGPS() | NO GPS FOUND: {"class":"TPV","tag":"MID2","device":"/dev/ttyUSB0","mode":1,"time":"1989-07-02T00:02:26.040Z","ept":0.005}
DEBUG:root:01/01/1970 H:54:18 app.py | ValueError | GrabGPS() | NO GPS FOUND: {"class":"TPV","tag":"MID2","device":"/dev/ttyUSB0","mode":1,"time":"1989-07-02T00:02:27.040Z","ept":0.005}
DEBUG:root:01/01/1970 H:54:20 app.py | ValueError | GrabGPS() | NO GPS FOUND: {"class":"TPV","tag":"MID2","device":"/dev/ttyUSB0","mode":1,"time":"1989-07-02T00:02:29.040Z","ept":0.005}
DEBUG:root:01/01/1970 H:54:21 app.py | ValueError | GrabGPS() | NO GPS FOUND: {"class":"TPV","tag":"MID2","device":"/dev/ttyUSB0","mode":1,"time":"1989-07-02T00:02:30.040Z","ept":0.005}
DEBUG:root:01/01/1970 H:54:23 app.py | ValueError | GrabGPS() | NO GPS FOUND: {"class":"TPV","tag":"MID2","device":"/dev/ttyUSB0","mode":1,"time":"1989-07-02T00:02:32.040Z","ept":0.005}
DEBUG:root:01/01/1970 H:54:26 app.py | ValueError | GrabGPS() | NO GPS FOUND: {"class":"DEVICE","path":"/dev/ttyUSB0","activated":3266.431282}
DEBUG:root:01/01/1970 H:54:27 app.py | ValueError | GrabGPS() | NO GPS FOUND: {"class":"TPV","tag":"MID2","device":"/dev/ttyUSB0","mode":1,"time":"1989-07-01T23:59:46.040Z","ept":0.005}
DEBUG:root:01/01/1970 H:54:31 app.py | ValueError | GrabGPS() | NO GPS FOUND: {"class":"DEVICE","path":"/dev/ttyUSB0","activated":3271.171226}
DEBUG:root:01/01/1970 H:54:31 app.py | ValueError | GrabGPS() | NO GPS FOUND: {"class":"TPV","tag":"MID2","device":"/dev/ttyUSB0","mode":1,"time":"1989-07-01T23:59:45.040Z","ept":0.005}
DEBUG:root:01/01/1970 H:54:32 app.py | ValueError | GrabGPS() | NO GPS FOUND: {"class":"TPV","tag":"MID2","device":"/dev/ttyUSB0","mode":1,"time":"1989-07-01T23:59:46.040Z","ept":0.005}
DEBUG:root:01/01/1970 H:54:33 app.py | ValueError | GrabGPS() | NO GPS FOUND: {"class":"TPV","tag":"MID2","device":"/dev/ttyUSB0","mode":1,"time":"1989-07-01T23:59:47.040Z","ept":0.005}
DEBUG:root:01/01/1970 H:54:35 app.py | ValueError | GrabGPS() | NO GPS FOUND: {"class":"SKY","tag":"MID4","device":"/dev/ttyUSB0","time":"1989-07-01T23:59:49.040Z","hdop":0.00}
DEBUG:root:01/01/1970 H:54:36 app.py | ValueError | GrabGPS() | NO GPS FOUND: {"class":"TPV","tag":"MID2","device":"/dev/ttyUSB0","mode":1,"time":"1989-07-01T23:59:51.050Z","ept":0.005}
DEBUG:root:01/01/1970 H:54:38 app.py | ValueError | GrabGPS() | NO GPS FOUND: {"class":"TPV","tag":"MID2","device":"/dev/ttyUSB0","mode":1,"time":"1989-07-01T23:59:52.040Z","ept":0.005}
DEBUG:root:01/01/1970 H:54:39 app.py | ValueError | GrabGPS() | NO GPS FOUND: {"class":"TPV","tag":"MID2","device":"/dev/ttyUSB0","mode":1,"time":"1989-07-01T23:59:54.050Z","ept":0.005}
DEBUG:root:01/01/1970 H:54:43 app.py | ValueError | GrabGPS() | NO GPS FOUND: {"class":"DEVICE","path":"/dev/ttyUSB0","activated":3283.081394}
DEBUG:root:01/01/1970 H:54:44 app.py | ValueError | GrabGPS() | NO GPS FOUND: {"class":"SKY","tag":"MID4","device":"/dev/ttyUSB0","time":"1989-07-01T23:59:46.040Z"}
DEBUG:root:01/01/1970 H:54:45 app.py | ValueError | GrabGPS() | NO GPS FOUND: {"class":"TPV","tag":"MID2","device":"/dev/ttyUSB0","mode":1,"time":"1989-07-01T23:59:47.040Z","ept":0.005}
DEBUG:root:01/01/1970 H:54:46 app.py | ValueError | GrabGPS() | NO GPS FOUND: {"class":"TPV","tag":"MID2","device":"/dev/ttyUSB0","mode":1,"time":"1989-07-01T23:59:48.050Z","ept":0.005}
DEBUG:root:01/01/1970 H:54:47 app.py | ValueError | GrabGPS() | NO GPS FOUND: {"class":"SKY","tag":"MID4","device":"/dev/ttyUSB0","time":"1989-07-01T23:59:50.040Z","hdop":0.00}
DEBUG:root:01/01/1970 H:54:49 app.py | ValueError | GrabGPS() | NO GPS FOUND: {"class":"TPV","tag":"MID2","device":"/dev/ttyUSB0","mode":1,"time":"1989-07-01T23:59:52.040Z","ept":0.005}
DEBUG:root:01/01/1970 H:54:50 app.py | ValueError | GrabGPS() | NO GPS FOUND: {"class":"TPV","tag":"MID2","device":"/dev/ttyUSB0","mode":1,"time":"1989-07-01T23:59:53.040Z","ept":0.005}
DEBUG:root:01/01/1970 H:54:52 app.py | ValueError | GrabGPS() | NO GPS FOUND: {"class":"TPV","tag":"MID2","device":"/dev/ttyUSB0","mode":1,"time":"1989-07-01T23:59:55.040Z","ept":0.005}
DEBUG:root:01/01/1970 H:54:53 app.py | ValueError | GrabGPS() | NO GPS FOUND: {"class":"TPV","tag":"MID2","device":"/dev/ttyUSB0","mode":1,"time":"1989-07-01T23:59:56.040Z","ept":0.005}
DEBUG:root:01/01/1970 H:54:55 app.py | ValueError | GrabGPS() | NO GPS FOUND: {"class":"TPV","tag":"MID2","device":"/dev/ttyUSB0","mode":1,"time":"1989-07-01T23:59:58.040Z","ept":0.005}
DEBUG:root:01/01/1970 H:54:56 app.py | ValueError | GrabGPS() | NO GPS FOUND: {"class":"TPV","tag":"MID2","device":"/dev/ttyUSB0","mode":1,"time":"1989-07-01T23:59:59.040Z","ept":0.005}
DEBUG:root:01/01/1970 H:54:58 app.py | ValueError | GrabGPS() | NO GPS FOUND: {"class":"TPV","tag":"MID2","device":"/dev/ttyUSB0","mode":1,"time":"1989-07-02T00:00:01.040Z","ept":0.005}
DEBUG:root:01/01/1970 H:54:59 app.py | ValueError | GrabGPS() | NO GPS FOUND: {"class":"TPV","tag":"MID2","device":"/dev/ttyUSB0","mode":1,"time":"1989-07-02T00:00:02.040Z","ept":0.005}
DEBUG:root:01/01/1970 H:55:01 app.py | ValueError | GrabGPS() | NO GPS FOUND: {"class":"TPV","tag":"MID2","device":"/dev/ttyUSB0","mode":1,"time":"1989-07-02T00:00:04.040Z","ept":0.005}
DEBUG:root:01/01/1970 H:55:02 app.py | ValueError | GrabGPS() | NO GPS FOUND: {"class":"TPV","tag":"MID2","device":"/dev/ttyUSB0","mode":1,"time":"1989-07-02T00:00:05.040Z","ept":0.005}
DEBUG:root:01/01/1970 H:55:04 app.py | ValueError | GrabGPS() | NO GPS FOUND: {"class":"TPV","tag":"MID2","device":"/dev/ttyUSB0","mode":1,"time":"1989-07-02T00:00:07.040Z","ept":0.005}
DEBUG:root:01/01/1970 H:55:05 app.py | ValueError | GrabGPS() | NO GPS FOUND: {"class":"TPV","tag":"MID2","device":"/dev/ttyUSB0","mode":1,"time":"1989-07-02T00:00:08.040Z","ept":0.005}
DEBUG:root:01/01/1970 H:55:07 app.py | ValueError | GrabGPS() | NO GPS FOUND: {"class":"TPV","tag":"MID2","device":"/dev/ttyUSB0","mode":1,"time":"1989-07-02T00:00:10.040Z","ept":0.005}
DEBUG:root:01/01/1970 H:55:08 app.py | ValueError | GrabGPS() | NO GPS FOUND: {"class":"TPV","tag":"MID2","device":"/dev/ttyUSB0","mode":1,"time":"1989-07-02T00:00:11.040Z","ept":0.005}
DEBUG:root:01/01/1970 H:55:10 app.py | ValueError | GrabGPS() | NO GPS FOUND: {"class":"TPV","tag":"MID2","device":"/dev/ttyUSB0","mode":1,"time":"1989-07-02T00:00:13.040Z","ept":0.005}
DEBUG:root:01/01/1970 H:55:11 app.py | ValueError | GrabGPS() | NO GPS FOUND: {"class":"TPV","tag":"MID2","device":"/dev/ttyUSB0","mode":1,"time":"1989-07-02T00:00:14.040Z","ept":0.005}
